[{"id":"1000","name":"Dole Ave/Cheddar Rd","lat":-37.70077481,"lon":145.01895105,"code":"1000"},{"id":"10001","name":"Rex St/Taylors Rd","lat":-37.72697521,"lon":144.77615243,"code":"10001"},{"id":"10002","name":"Yuille St/Centenary Ave","lat":-37.6761595,"lon":144.59578941,"code":"10002"},{"id":"10009","name":"Gum Rd/Main Rd West","lat":-37.74149711,"lon":144.77589939,"code":"10009"},{"id":"1001","name":"Lloyd Ave/Cheddar Rd","lat":-37.69918301,"lon":145.01968529,"code":"1001"},{"id":"10010","name":"Kings Rd/Main Rd West","lat":-37.74194553,"lon":144.78008474,"code":"10010"},{"id":"10011","name":"Moffat St/Main Rd West","lat":-37.7423246,"lon":144.7834665,"code":"10011"},{"id":"10012","name":"Washington St/Main Rd West","lat":-37.74279566,"lon":144.78791229,"code":"10012"},{"id":"10013","name":"Kate St/Main Rd West","lat":-37.74356938,"lon":144.79457342,"code":"10013"},{"id":"10014","name":"Raleighs Rd/Centenary Ave","lat":-37.67530436,"lon":144.58877643,"code":"10014"},{"id":"10016","name":"Melton Cemetery/O'Neills Rd","lat":-37.67498051,"lon":144.57825444,"code":"10016"},{"id":"10017","name":"Swan St/O'Neills Rd","lat":-37.67875895,"lon":144.57750796,"code":"10017"},{"id":"10018","name":"Reservoir SC/Broadway","lat":-37.71712122,"lon":145.00978028,"code":"10018"},{"id":"10019","name":"Northumberland Rd/Pascoe St","lat":-37.7162865,"lon":144.93404411,"code":"10019"},{"id":"1002","name":"Liston Ave/Cheddar Rd","lat":-37.69744778,"lon":145.02100173,"code":"1002"},{"id":"10020","name":"Westbreen PS/Pascoe St","lat":-37.71655281,"lon":144.93638502,"code":"10020"},{"id":"10021","name":"Joffre Rd/Boundary Rd","lat":-37.71691492,"lon":144.94008463,"code":"10021"},{"id":"10022","name":"Kent Rd/Cumberland Rd","lat":-37.72071084,"lon":144.94019503,"code":"10022"},{"id":"10023","name":"Warwick Rd/Cumberland Rd","lat":-37.72220292,"lon":144.93997217,"code":"10023"},{"id":"10025","name":"Daley St/Cumberland Rd","lat":-37.72501492,"lon":144.93947446,"code":"10025"},{"id":"10026","name":"Pleasant St/Cumberland Rd","lat":-37.72711752,"lon":144.93912119,"code":"10026"},{"id":"10027","name":"Olive Gr/Cumberland Rd","lat":-37.72922911,"lon":144.93876764,"code":"10027"},{"id":"10028","name":"Gaffney St/Cumberland Rd","lat":-37.73216543,"lon":144.93816426,"code":"10028"},{"id":"10029","name":"Pardy St/Cumberland Rd","lat":-37.73392851,"lon":144.93797918,"code":"10029"},{"id":"1003","name":"Keon Pde/Dalton Rd","lat":-37.69504181,"lon":145.02316385,"code":"1003"},{"id":"10030","name":"Eastgate St/Cumberland Rd","lat":-37.73550025,"lon":144.93767458,"code":"10030"},{"id":"10031","name":"Bell St/Cumberland Rd","lat":-37.73761144,"lon":144.93729826,"code":"10031"},{"id":"10032","name":"Balmoral Ave/Bell St","lat":-37.73879226,"lon":144.94195215,"code":"10032"},{"id":"10033","name":"Royal Pde/Bell St","lat":-37.73940394,"lon":144.94705314,"code":"10033"},{"id":"10034","name":"Davis St/Bell St","lat":-37.73979317,"lon":144.9507759,"code":"10034"},{"id":"10035","name":"Linsey St/Bell St","lat":-37.74008605,"lon":144.95362754,"code":"10035"},{"id":"10036","name":"Kelson St/Bell St","lat":-37.74032576,"lon":144.95601539,"code":"10036"},{"id":"10037","name":"Nelson St/Bell St","lat":-37.74071785,"lon":144.95991974,"code":"10037"},{"id":"10038","name":"Coburg Cemetery/Bell St","lat":-37.74310506,"lon":144.98236979,"code":"10038"},{"id":"10039","name":"Tasman St/Bell St","lat":-37.7435479,"lon":144.98560348,"code":"10039"},{"id":"1004","name":"Wood St/Dalton Rd","lat":-37.6920077,"lon":145.02548993,"code":"1004"},{"id":"10040","name":"Gilbert Rd/Bell St","lat":-37.74397544,"lon":144.98952991,"code":"10040"},{"id":"10041","name":"Erin St/Bell St","lat":-37.74427667,"lon":144.9929264,"code":"10041"},{"id":"10042","name":"Penola St/Bell St","lat":-37.74455323,"lon":144.99593772,"code":"10042"},{"id":"10043","name":"High St/Bell St","lat":-37.7451615,"lon":145.0020384,"code":"10043"},{"id":"10044","name":"Plenty Rd/Bell St","lat":-37.74548267,"lon":145.00503725,"code":"10044"},{"id":"10045","name":"Panch Health Service/Bell St","lat":-37.74582045,"lon":145.00848964,"code":"10045"},{"id":"10047","name":"O'Keefe St/Bell St","lat":-37.74650014,"lon":145.01458863,"code":"10047"},{"id":"10048","name":"Liberty Pde/Bell St","lat":-37.7494194,"lon":145.0371418,"code":"10048"},{"id":"10049","name":"Oriel Rd/Bell St","lat":-37.74972949,"lon":145.0395284,"code":"10049"},{"id":"1005","name":"Settlement Rd/Dalton Rd","lat":-37.68827471,"lon":145.02806113,"code":"1005"},{"id":"10050","name":"Plunkett St/Bell St","lat":-37.7503134,"lon":145.04266824,"code":"10050"},{"id":"10051","name":"Melbourne Polytechnic/Bell St","lat":-37.7510312,"lon":145.0451917,"code":"10051"},{"id":"10052","name":"Gotha St/Bell St","lat":-37.75189457,"lon":145.0478022,"code":"10052"},{"id":"10053","name":"Austin Repat MC/Bell St","lat":-37.75267606,"lon":145.04982469,"code":"10053"},{"id":"10054","name":"Myrtle St/Bell St","lat":-37.75384072,"lon":145.0526771,"code":"10054"},{"id":"10055","name":"Warringal SC/Cape St","lat":-37.75559602,"lon":145.06733017,"code":"10055"},{"id":"10056","name":"Heidelberg Primary School/Darebin St","lat":-37.75455865,"lon":145.06946836,"code":"10056"},{"id":"10057","name":"Brown St/Rosanna Rd","lat":-37.75210398,"lon":145.07036072,"code":"10057"},{"id":"10058","name":"Reid St/Rosanna Rd","lat":-37.75001084,"lon":145.07076694,"code":"10058"},{"id":"10059","name":"St James Rd/Rosanna Rd","lat":-37.74857343,"lon":145.07104262,"code":"10059"},{"id":"1006","name":"Alison St/Dalton Rd","lat":-37.68400281,"lon":145.0291268,"code":"1006"},{"id":"10060","name":"Station Rd/Rosanna Rd","lat":-37.74569732,"lon":145.07151451,"code":"10060"},{"id":"10061","name":"Millicent St/Lower Plenty Rd","lat":-37.74048948,"lon":145.06938001,"code":"10061"},{"id":"10062","name":"Arden Cres/Lower Plenty Rd","lat":-37.7396742,"lon":145.07077433,"code":"10062"},{"id":"10063","name":"Milford Gr/Lower Plenty Rd","lat":-37.73803532,"lon":145.07360848,"code":"10063"},{"id":"10064","name":"Lyons St/Hyde St","lat":-37.80879504,"lon":144.89955079,"code":"10064"},{"id":"10065","name":"Harris St/Hyde St","lat":-37.81115367,"lon":144.89840485,"code":"10065"},{"id":"10066","name":"Yarraville Gardens/Hyde St","lat":-37.8142695,"lon":144.89727143,"code":"10066"},{"id":"10067","name":"Lennox St/Hyde St","lat":-37.81669533,"lon":144.8968618,"code":"10067"},{"id":"10068","name":"Earsdon St/Hyde St","lat":-37.81822106,"lon":144.89651177,"code":"10068"},{"id":"10069","name":"Little Hyde St/Hyde St","lat":-37.81988291,"lon":144.89621467,"code":"10069"},{"id":"1007","name":"Buckingham Ct/Dalton Rd","lat":-37.68055186,"lon":145.02970572,"code":"1007"},{"id":"10070","name":"Hyde St/Francis St","lat":-37.8217862,"lon":144.89530858,"code":"10070"},{"id":"10071","name":"Stephen St/Francis St","lat":-37.82146439,"lon":144.89243217,"code":"10071"},{"id":"10072","name":"Hughes St/Francis St","lat":-37.82125253,"lon":144.89066597,"code":"10072"},{"id":"10073","name":"Evans St/Bridge St","lat":-37.83418498,"lon":144.94058784,"code":"10073"},{"id":"10074","name":"Princes St/Bridge St","lat":-37.8358841,"lon":144.94241544,"code":"10074"},{"id":"10075","name":"Bay Street Shops/Bay St","lat":-37.8385098,"lon":144.94260383,"code":"10075"},{"id":"10076","name":"Cruikshank St/Liardet St","lat":-37.84002104,"lon":144.94502769,"code":"10076"},{"id":"10077","name":"Bridport St/Richardson St","lat":-37.84235279,"lon":144.94903119,"code":"10077"},{"id":"10078","name":"Albert Park Shops/Richardson St","lat":-37.84357915,"lon":144.951145,"code":"10078"},{"id":"10079","name":"Kerferd Rd/Richardson St","lat":-37.84557519,"lon":144.9545104,"code":"10079"},{"id":"1008","name":"Wattle St/Dalton Rd","lat":-37.67855662,"lon":145.03003064,"code":"1008"},{"id":"10080","name":"Middle Park PS/Richardson St","lat":-37.84718593,"lon":144.95748885,"code":"10080"},{"id":"10081","name":"Wright St/Richardson St","lat":-37.84800597,"lon":144.9590459,"code":"10081"},{"id":"10082","name":"Nimmo St/Richardson St","lat":-37.84974881,"lon":144.96237323,"code":"10082"},{"id":"10084","name":"Armstrong St/Danks St","lat":-37.85308237,"lon":144.96284971,"code":"10084"},{"id":"10086","name":"Fraser St/Patterson St","lat":-37.85536147,"lon":144.96696958,"code":"10086"},{"id":"10087","name":"Jacoby Reserve/Park St","lat":-37.85719652,"lon":144.97043128,"code":"10087"},{"id":"10088","name":"Mary St/Park St","lat":-37.85905675,"lon":144.97274446,"code":"10088"},{"id":"1009","name":"Maple St/Dalton Rd","lat":-37.67501559,"lon":145.03061185,"code":"1009"},{"id":"10093","name":"Warland Rd/Carrington St","lat":-37.93606921,"lon":145.03372288,"code":"10093"},{"id":"10094","name":"Dane Rd/Spring Rd","lat":-37.93994574,"lon":145.03381301,"code":"10094"},{"id":"10095","name":"Besant St/Spring Rd","lat":-37.94259331,"lon":145.03316209,"code":"10095"},{"id":"10099","name":"Bluff Rd/Wickham Rd","lat":-37.94288719,"lon":145.02327695,"code":"10099"},{"id":"101","name":"Aquarena/Williamsons Rd","lat":-37.7743757,"lon":145.12637945,"code":"101"},{"id":"1010","name":"Deakin Ave/Dalton Rd","lat":-37.67174442,"lon":145.03116318,"code":"1010"},{"id":"10100","name":"June St/Bluff Rd","lat":-37.94550441,"lon":145.02243298,"code":"10100"},{"id":"10101","name":"Abberfield Nursing Home/Bluff Rd","lat":-37.94805549,"lon":145.02194351,"code":"10101"},{"id":"10102","name":"Sandringham College/Bluff Rd","lat":-37.95077656,"lon":145.02138116,"code":"10102"},{"id":"10103","name":"Bay Rd/Bluff Rd","lat":-37.95432383,"lon":145.02064863,"code":"10103"},{"id":"10104","name":"Holloway Rd/Bluff Rd","lat":-37.95769938,"lon":145.01988649,"code":"10104"},{"id":"10105","name":"College Gr/Balcombe Rd","lat":-37.97567846,"lon":145.01886832,"code":"10105"},{"id":"10106","name":"Cullinane St/Balcombe Rd","lat":-37.97603147,"lon":145.02110158,"code":"10106"},{"id":"10107","name":"Hunter Ave/Balcombe Rd","lat":-37.97638519,"lon":145.02391544,"code":"10107"},{"id":"10108","name":"Summerhill Rd/Balcombe Rd","lat":-37.97668155,"lon":145.02653734,"code":"10108"},{"id":"10109","name":"Haydens Rd/Balcombe Rd","lat":-37.97710062,"lon":145.03003259,"code":"10109"},{"id":"1011","name":"Ruth St/Dalton Rd","lat":-37.66987509,"lon":145.03147335,"code":"1011"},{"id":"10110","name":"McNaught St/Balcombe Rd","lat":-37.97805351,"lon":145.03527829,"code":"10110"},{"id":"10111","name":"Morey St/Balcombe Rd","lat":-37.9781401,"lon":145.03938591,"code":"10111"},{"id":"10112","name":"Thistle St/Mt Alexander Rd","lat":-37.75084981,"lon":144.91426534,"code":"10112"},{"id":"10113","name":"Ryland Ave/Maroondah Hwy","lat":-37.79008775,"lon":145.2661176,"code":"10113"},{"id":"10114","name":"Stirling Rd/Maroondah Hwy","lat":-37.788496,"lon":145.27064043,"code":"10114"},{"id":"10118","name":"Bonnie View Rd/Maroondah Hwy","lat":-37.78108142,"lon":145.28808405,"code":"10118"},{"id":"10119","name":"Golf Links Rd/Maroondah Hwy","lat":-37.77829267,"lon":145.29215652,"code":"10119"},{"id":"1012","name":"Queen St/Dalton Rd","lat":-37.66805061,"lon":145.03177098,"code":"1012"},{"id":"10120","name":"Primrose Rd/Maroondah Hwy","lat":-37.77464495,"lon":145.29293305,"code":"10120"},{"id":"10121","name":"Dorset Rd/Maroondah Hwy","lat":-37.77136388,"lon":145.29475694,"code":"10121"},{"id":"10122","name":"Exeter Rd/Maroondah Hwy","lat":-37.7704751,"lon":145.2956175,"code":"10122"},{"id":"10123","name":"Maroondah Golf Park/Maroondah Hwy","lat":-37.76702281,"lon":145.3011915,"code":"10123"},{"id":"10124","name":"Old Melbourne Rd/Maroondah Hwy","lat":-37.76596539,"lon":145.30348622,"code":"10124"},{"id":"10125","name":"Chirnside Homemaker Centre/Maroondah Hwy","lat":-37.76421039,"lon":145.30678445,"code":"10125"},{"id":"10126","name":"Fletcher Rd/Maroondah Hwy","lat":-37.76190865,"lon":145.3102993,"code":"10126"},{"id":"1013","name":"Curtin Ave/Dalton Rd","lat":-37.66550757,"lon":145.03221227,"code":"1013"},{"id":"10131","name":"Powell St/Spring St","lat":-37.72663676,"lon":145.00119751,"code":"10131"},{"id":"10132","name":"Frankston St/Spring St","lat":-37.72494772,"lon":145.00150387,"code":"10132"},{"id":"10133","name":"Broughton Ave/Spring St","lat":-37.72369871,"lon":145.00171898,"code":"10133"},{"id":"10134","name":"Reservoir St/Spring St","lat":-37.72161757,"lon":145.00281868,"code":"10134"},{"id":"10135","name":"Croft Cres/Spring St","lat":-37.72031608,"lon":145.00419237,"code":"10135"},{"id":"10137","name":"Viola St/Spring St","lat":-37.71859025,"lon":145.00552066,"code":"10137"},{"id":"10138","name":"Compton St/Edwardes St","lat":-37.7158732,"lon":145.00206539,"code":"10138"},{"id":"10139","name":"Kelsby St/Edwardes St","lat":-37.71540604,"lon":144.9979032,"code":"10139"},{"id":"1014","name":"Childs Rd/Dalton Rd","lat":-37.66193757,"lon":145.03105956,"code":"1014"},{"id":"10140","name":"Gilbert Rd/Edwardes St","lat":-37.71605004,"lon":144.99284891,"code":"10140"},{"id":"10141","name":"Pitt St/Edwardes St","lat":-37.7143332,"lon":144.98782437,"code":"10141"},{"id":"10142","name":"Newlands Rd/Edwardes St","lat":-37.71400911,"lon":144.98467946,"code":"10142"},{"id":"10144","name":"Newlands Rd/Henty St","lat":-37.71751675,"lon":144.98268985,"code":"10144"},{"id":"10145","name":"Kurnai Ave/Henty St","lat":-37.71771013,"lon":144.9845111,"code":"10145"},{"id":"10146","name":"Wattlebrae St/Henty St","lat":-37.71791593,"lon":144.98970143,"code":"10146"},{"id":"10147","name":"Boniview St/Henty St","lat":-37.71819909,"lon":144.99150894,"code":"10147"},{"id":"10148","name":"Henty St/Gilbert Rd","lat":-37.71860851,"lon":144.99332441,"code":"10148"},{"id":"10149","name":"Kia Ora Rd/Gilbert Rd","lat":-37.72002827,"lon":144.99308189,"code":"10149"},{"id":"1015","name":"Holroyd Dr/Dalton Rd","lat":-37.65940225,"lon":145.03034436,"code":"1015"},{"id":"10150","name":"Dwyer Ave/Gilbert Rd","lat":-37.72378444,"lon":144.99244725,"code":"10150"},{"id":"10151","name":"Knox St/Gilbert Rd","lat":-37.7254198,"lon":144.99216483,"code":"10151"},{"id":"10152","name":"Beatty St/Gilbert Rd","lat":-37.72640756,"lon":144.99195662,"code":"10152"},{"id":"10153","name":"Gilbert Rd/Regent St","lat":-37.7294489,"lon":144.99168157,"code":"10153"},{"id":"10154","name":"Edwardes St/Kelsby St","lat":-37.7151412,"lon":144.99822797,"code":"10154"},{"id":"10155","name":"Leamington St/Kelsby St","lat":-37.71250846,"lon":144.99868452,"code":"10155"},{"id":"10157","name":"Seaver Gr/Leamington St","lat":-37.71127601,"lon":144.9908678,"code":"10157"},{"id":"10158","name":"Gill St/Banbury Rd","lat":-37.71260107,"lon":144.98930057,"code":"10158"},{"id":"10159","name":"Edwardes St/Banbury Rd","lat":-37.71404765,"lon":144.98904593,"code":"10159"},{"id":"1016","name":"Grand Pde/Dalton Rd","lat":-37.65686651,"lon":145.03068343,"code":"1016"},{"id":"10160","name":"Luther College/Plymouth Rd","lat":-37.78317077,"lon":145.27132096,"code":"10160"},{"id":"10161","name":"Luther College/Plymouth Rd","lat":-37.78345349,"lon":145.27339239,"code":"10161"},{"id":"10162","name":"Plymouth Rd/Yarra Rd","lat":-37.78365799,"lon":145.27443231,"code":"10162"},{"id":"10164","name":"Clement Cres/Croydon Rd","lat":-37.78452504,"lon":145.28381444,"code":"10164"},{"id":"10165","name":"Grandview Ave/Croydon Rd","lat":-37.7866107,"lon":145.28345959,"code":"10165"},{"id":"10166","name":"Samuel St/Croydon Rd","lat":-37.78999558,"lon":145.28258633,"code":"10166"},{"id":"10167","name":"Croydon PS/Croydon Rd","lat":-37.79255508,"lon":145.28197059,"code":"10167"},{"id":"10168","name":"Larissa Ave/Maroondah Hwy","lat":-37.81209504,"lon":145.23574985,"code":"10168"},{"id":"10169","name":"Oliver St/Maroondah Hwy","lat":-37.80945219,"lon":145.23920915,"code":"10169"},{"id":"1017","name":"Melbourne Polytechnic/Dalton Rd","lat":-37.65453985,"lon":145.0311303,"code":"1017"},{"id":"10170","name":"Rupert St/Maroondah Hwy","lat":-37.80850283,"lon":145.24020858,"code":"10170"},{"id":"10171","name":"Leonard St/Maroondah Hwy","lat":-37.80707171,"lon":145.24213948,"code":"10171"},{"id":"10172","name":"Mines Rd/Maroondah Hwy","lat":-37.80504761,"lon":145.24479993,"code":"10172"},{"id":"10173","name":"Dublin Rd/Maroondah Hwy","lat":-37.80268077,"lon":145.24744562,"code":"10173"},{"id":"10174","name":"Everard Rd/Maroondah Hwy","lat":-37.80176258,"lon":145.24872807,"code":"10174"},{"id":"10175","name":"463 Maroondah Hwy","lat":-37.80032061,"lon":145.2505453,"code":"10175"},{"id":"10176","name":"Oban Rd/Maroondah Hwy","lat":-37.7980486,"lon":145.25351777,"code":"10176"},{"id":"10177","name":"Maggs St/Maroondah Hwy","lat":-37.79398932,"lon":145.25934856,"code":"10177"},{"id":"10178","name":"Hinkley Ave/Maroondah Hwy","lat":-37.79196732,"lon":145.26217837,"code":"10178"},{"id":"10179","name":"Cherry Tree Gr/Maroondah Hwy","lat":-37.78960612,"lon":145.26707142,"code":"10179"},{"id":"1018","name":"Coulstock St/Davisson St","lat":-37.64972294,"lon":145.02978404,"code":"1018"},{"id":"10180","name":"Highland Ave/Maroondah Hwy","lat":-37.78824725,"lon":145.27088471,"code":"10180"},{"id":"10184","name":"Warrien Rd/Maroondah Hwy","lat":-37.78236673,"lon":145.28475006,"code":"10184"},{"id":"10185","name":"Bonnie View Rd/Maroondah Hwy","lat":-37.78092008,"lon":145.28814455,"code":"10185"},{"id":"10186","name":"Primrose Rd/Maroondah Hwy","lat":-37.77462562,"lon":145.29284266,"code":"10186"},{"id":"10187","name":"Exeter Rd/Maroondah Hwy","lat":-37.77044578,"lon":145.29545922,"code":"10187"},{"id":"10188","name":"Maroondah Golf Park/Maroondah Hwy","lat":-37.76634628,"lon":145.30177461,"code":"10188"},{"id":"10189","name":"Old Melbourne Rd/Maroondah Hwy","lat":-37.76527574,"lon":145.30441018,"code":"10189"},{"id":"1019","name":"Davisson St/Rufus St","lat":-37.64897429,"lon":145.03082392,"code":"1019"},{"id":"10190","name":"Chirnside Homemaker Centre/Maroondah Hwy","lat":-37.76406395,"lon":145.30662885,"code":"10190"},{"id":"10195","name":"High St/Miller St","lat":-37.75211598,"lon":145.00028503,"code":"10195"},{"id":"10196","name":"William St/Regent St","lat":-37.73069693,"lon":145.00360731,"code":"10196"},{"id":"10197","name":"Regent St/Spring St","lat":-37.72971721,"lon":145.00057004,"code":"10197"},{"id":"10198","name":"Rona St/Spring St","lat":-37.72843236,"lon":145.00079749,"code":"10198"},{"id":"10199","name":"Powell St/Spring St","lat":-37.72668889,"lon":145.00108265,"code":"10199"},{"id":"102","name":"Lalor Shopping Centre/David St","lat":-37.67173759,"lon":145.01677571,"code":"102"},{"id":"1020","name":"Keith Ave/Greenbrook Dr","lat":-37.64768064,"lon":145.03539174,"code":"1020"},{"id":"10200","name":"Frankston St/Spring St","lat":-37.72449713,"lon":145.00150464,"code":"10200"},{"id":"10201","name":"Taylor Ave/Spring St","lat":-37.72337404,"lon":145.00170501,"code":"10201"},{"id":"10202","name":"Moore Cres/Spring St","lat":-37.72137589,"lon":145.00291594,"code":"10202"},{"id":"10203","name":"Cleeland St/Spring St","lat":-37.71796297,"lon":145.00573035,"code":"10203"},{"id":"10204","name":"Reservoir Station/Edwardes St","lat":-37.7164395,"lon":145.00623633,"code":"10204"},{"id":"10205","name":"Olive St/Edwardes St","lat":-37.71621177,"lon":145.00449537,"code":"10205"},{"id":"10206","name":"Kelsby St/Edwardes St","lat":-37.71554675,"lon":144.9982284,"code":"10206"},{"id":"10207","name":"Willoughby St/Edwardes St","lat":-37.71538658,"lon":144.99675794,"code":"10207"},{"id":"10208","name":"Gilbert Rd/Edwardes St","lat":-37.71631622,"lon":144.99260349,"code":"10208"},{"id":"10209","name":"Pitt St/Edwardes St","lat":-37.71445321,"lon":144.98799129,"code":"10209"},{"id":"1021","name":"McDonalds Rd/Greenbrook Dr","lat":-37.64645002,"lon":145.03671624,"code":"1021"},{"id":"10210","name":"Newlands Rd/Edwardes St","lat":-37.71407768,"lon":144.98447341,"code":"10210"},{"id":"10211","name":"Newlands Rd/Henty St","lat":-37.71743704,"lon":144.98277142,"code":"10211"},{"id":"10212","name":"Meadowbank Dr/Furlong Rd","lat":-37.76142262,"lon":144.82225064,"code":"10212"},{"id":"10213","name":"Sunshine Hospital/Furlong Rd","lat":-37.76073025,"lon":144.8160052,"code":"10213"},{"id":"10214","name":"Ironbark St/Furlong Rd","lat":-37.76043529,"lon":144.81322154,"code":"10214"},{"id":"10215","name":"Ginifer Station/Mulhall Dr","lat":-37.75814585,"lon":144.81076913,"code":"10215"},{"id":"1022","name":"Greenbrook SC/McDonalds Rd","lat":-37.64583938,"lon":145.04009848,"code":"1022"},{"id":"10224","name":"St Albans Sec Col/Main Rd East","lat":-37.7449737,"lon":144.8065612,"code":"10224"},{"id":"10225","name":"Lester Ave/Main Rd East","lat":-37.74542182,"lon":144.81030437,"code":"10225"},{"id":"10227","name":"Lyons St/Hyde St","lat":-37.80816434,"lon":144.8995573,"code":"10227"},{"id":"10228","name":"Princess St/Hyde St","lat":-37.81124708,"lon":144.89808415,"code":"10228"},{"id":"10229","name":"Somerville Rd/Hyde St","lat":-37.81468058,"lon":144.89707801,"code":"10229"},{"id":"1023","name":"Greenview Ct/McDonalds Rd","lat":-37.64622011,"lon":145.04348865,"code":"1023"},{"id":"10230","name":"Lennox St/Hyde St","lat":-37.81633282,"lon":144.89674713,"code":"10230"},{"id":"10231","name":"204 Hyde St","lat":-37.81787818,"lon":144.89648743,"code":"10231"},{"id":"10232","name":"Kent St/Hyde St","lat":-37.8201603,"lon":144.89610455,"code":"10232"},{"id":"10233","name":"Hyde St/Francis St","lat":-37.82174027,"lon":144.89576431,"code":"10233"},{"id":"10234","name":"Ballarat St/Francis St","lat":-37.82111687,"lon":144.89013589,"code":"10234"},{"id":"10235","name":"Bunninyong St/Francis St","lat":-37.8208156,"lon":144.88740663,"code":"10235"},{"id":"10237","name":"271 Narre Warren North Rd","lat":-37.99940239,"lon":145.31201518,"code":"10237"},{"id":"10238","name":"Hansen Reserve/Roberts St","lat":-37.80522521,"lon":144.87088226,"code":"10238"},{"id":"10239","name":"Indwe St/Roberts St","lat":-37.8031872,"lon":144.87130424,"code":"10239"},{"id":"1024","name":"Merrill Dr/McDonalds Rd","lat":-37.64648814,"lon":145.04606576,"code":"1024"},{"id":"10240","name":"Sunshine Rd/Roberts St","lat":-37.80113668,"lon":144.87153348,"code":"10240"},{"id":"10241","name":"Stradbroke St/Sunshine Rd","lat":-37.80152754,"lon":144.87921119,"code":"10241"},{"id":"10242","name":"West Footscray Station/Sunshine Rd","lat":-37.8023513,"lon":144.88342397,"code":"10242"},{"id":"10243","name":"Ross St/Bridge St","lat":-37.83424107,"lon":144.94018859,"code":"10243"},{"id":"10244","name":"Station St/Bridge St","lat":-37.83543288,"lon":144.94134852,"code":"10244"},{"id":"10245","name":"Bay Street Shops/Bridge St","lat":-37.83674885,"lon":144.94342543,"code":"10245"},{"id":"10246","name":"Cruikshank St/Liardet St","lat":-37.84030808,"lon":144.94495154,"code":"10246"},{"id":"10247","name":"Bridport St/Richardson St","lat":-37.84223719,"lon":144.94860257,"code":"10247"},{"id":"10248","name":"Albert Park Shops/Richardson St","lat":-37.84410384,"lon":144.95177823,"code":"10248"},{"id":"10249","name":"Kerferd Rd/Richardson St","lat":-37.84628376,"lon":144.95535451,"code":"10249"},{"id":"1025","name":"Meadow Glen Dr/McDonalds Rd","lat":-37.64712291,"lon":145.05175017,"code":"1025"},{"id":"10250","name":"Middle Park PS/Richardson St","lat":-37.84754314,"lon":144.95781993,"code":"10250"},{"id":"10251","name":"Wright St/Richardson St","lat":-37.84814049,"lon":144.9590081,"code":"10251"},{"id":"10252","name":"Nimmo St/Richardson St","lat":-37.84986453,"lon":144.96229048,"code":"10252"},{"id":"10253","name":"Armstrong St/Richardson St","lat":-37.85065551,"lon":144.9637348,"code":"10253"},{"id":"10254","name":"Armstrong St/Danks St","lat":-37.8531223,"lon":144.96255311,"code":"10254"},{"id":"10255","name":"Langridge St/Patterson St","lat":-37.85483448,"lon":144.965677,"code":"10255"},{"id":"10256","name":"Fraser St/Park St","lat":-37.85549678,"lon":144.96697723,"code":"10256"},{"id":"10257","name":"Jacoby Reserve/Park St","lat":-37.85754683,"lon":144.97088768,"code":"10257"},{"id":"10258","name":"Sarnia Ct/Kurrajong Rd","lat":-38.00222626,"lon":145.31286155,"code":"10258"},{"id":"10259","name":"High St/Memorial Ave","lat":-37.64487313,"lon":145.02808747,"code":"10259"},{"id":"1026","name":"Bridle Ct/Meadow Glen Dr","lat":-37.64604139,"lon":145.0512004,"code":"1026"},{"id":"10260","name":"Watermoor Ave/Eycot St","lat":-37.83735378,"lon":145.30367027,"code":"10260"},{"id":"10261","name":"Watermoor Ave/Rendcomb St","lat":-37.83639126,"lon":145.30441957,"code":"10261"},{"id":"10262","name":"Bibury Ct/Rendcomb St","lat":-37.83536005,"lon":145.30665902,"code":"10262"},{"id":"10263","name":"Collier Rd/Rendcomb St","lat":-37.83401866,"lon":145.30675787,"code":"10263"},{"id":"10264","name":"Watermoor Ave/Collier Rd","lat":-37.83334646,"lon":145.30513697,"code":"10264"},{"id":"10265","name":"Colchester Rd/Collier Rd","lat":-37.8327976,"lon":145.30269515,"code":"10265"},{"id":"10266","name":"Colchester Rd/Allambanan Dr","lat":-37.83316796,"lon":145.30150492,"code":"10266"},{"id":"10267","name":"Toolimerin Ave/Allambanan Dr","lat":-37.83236104,"lon":145.29992127,"code":"10267"},{"id":"10268","name":"Bagora Ct/Allambanan Dr","lat":-37.83155361,"lon":145.29830358,"code":"10268"},{"id":"10269","name":"Canterbury Gardens/Allambanan Dr","lat":-37.8315058,"lon":145.29499814,"code":"10269"},{"id":"1027","name":"Derby Dr/Meadow Glen Dr","lat":-37.64383117,"lon":145.05160951,"code":"1027"},{"id":"10270","name":"Aylesbury Ave/Blandford Cres","lat":-37.83103698,"lon":145.2924978,"code":"10270"},{"id":"10271","name":"Sherbourne Ave/Blandford Cres","lat":-37.83015837,"lon":145.29281348,"code":"10271"},{"id":"10272","name":"Stuart St/Blandford Cres","lat":-37.82816332,"lon":145.29382524,"code":"10272"},{"id":"10273","name":"Bayswater North PS/Stuart St","lat":-37.82752963,"lon":145.29487378,"code":"10273"},{"id":"10274","name":"Burdekin Ave/Colbury Rd","lat":-37.82878756,"lon":145.29648099,"code":"10274"},{"id":"10275","name":"Grant Dr/Burdekin Ave","lat":-37.82773499,"lon":145.29723237,"code":"10275"},{"id":"10276","name":"Leighton Rd/Burdekin Ave","lat":-37.82563227,"lon":145.29765563,"code":"10276"},{"id":"10277","name":"Anderson Cl/Burdekin Ave","lat":-37.82466524,"lon":145.30058643,"code":"10277"},{"id":"10278","name":"Colchester Rd/Burdekin Ave","lat":-37.82631327,"lon":145.30300279,"code":"10278"},{"id":"10279","name":"Canterbury Rd/Colchester Rd","lat":-37.82379264,"lon":145.30382174,"code":"10279"},{"id":"1028","name":"Glendale Ave/Derby Dr","lat":-37.64310067,"lon":145.04830789,"code":"1028"},{"id":"10283","name":"Garden St/Liverpool Rd","lat":-37.81696549,"lon":145.31666763,"code":"10283"},{"id":"10284","name":"Lade Ave/Liverpool Rd","lat":-37.81579185,"lon":145.31652389,"code":"10284"},{"id":"10285","name":"Kilsyth Sports Centre/Liverpool Rd","lat":-37.81243309,"lon":145.31608899,"code":"10285"},{"id":"10286","name":"Orchard St/Liverpool Rd","lat":-37.81125011,"lon":145.31592275,"code":"10286"},{"id":"10287","name":"Luscombe Ct/Liverpool Rd","lat":-37.80985042,"lon":145.31572736,"code":"10287"},{"id":"10288","name":"Pleasant St/Liverpool Rd","lat":-37.80640108,"lon":145.3152605,"code":"10288"},{"id":"1029","name":"Winchester Ave/Derby Dr","lat":-37.6426542,"lon":145.04420555,"code":"1029"},{"id":"10291","name":"Belvedere Dr/Swansea Rd","lat":-37.80650079,"lon":145.35095919,"code":"10291"},{"id":"10292","name":"Greenhills Ave/Cambridge Rd","lat":-37.80354635,"lon":145.34657239,"code":"10292"},{"id":"10293","name":"Emery Lane/Cambridge Rd","lat":-37.80282742,"lon":145.3447938,"code":"10293"},{"id":"10294","name":"Montrose Brickworks Flora Reserve/Cambridge Rd","lat":-37.80155059,"lon":145.34051757,"code":"10294"},{"id":"10295","name":"Acacia Ave/Cambridge Rd","lat":-37.80122309,"lon":145.33710612,"code":"10295"},{"id":"10296","name":"Alpine Way/Cambridge Rd","lat":-37.80091029,"lon":145.33410326,"code":"10296"},{"id":"10297","name":"Chittenup Bend/Overton Lea Bvd","lat":-37.70612279,"lon":144.76569425,"code":"10297"},{"id":"10298","name":"Hume Dr/Overton Lea Bvd","lat":-37.70909565,"lon":144.76802102,"code":"10298"},{"id":"10299","name":"Hume Dr/Copperfield Dr","lat":-37.71039305,"lon":144.77086326,"code":"10299"},{"id":"103","name":"Nicholson St/Johnston St","lat":-37.80026472,"lon":144.99806721,"code":"103"},{"id":"1030","name":"Northumberland Dr/Derby Dr","lat":-37.64260985,"lon":145.04207603,"code":"1030"},{"id":"10300","name":"Yellow Gum Rd/Copperfield Dr","lat":-37.71387234,"lon":144.77185932,"code":"10300"},{"id":"10301","name":"Copperfield College/Copperfield Dr","lat":-37.71860226,"lon":144.77084407,"code":"10301"},{"id":"10307","name":"Rex St/Taylors Rd","lat":-37.72686198,"lon":144.77636004,"code":"10307"},{"id":"10308","name":"Longfellow Dr/Taylors Rd","lat":-37.72661222,"lon":144.77410971,"code":"10308"},{"id":"1031","name":"Scarborough Rd/McDonalds Rd","lat":-37.64543964,"lon":145.03503144,"code":"1031"},{"id":"10315","name":"Rialto St/Main Rd West","lat":-37.74164593,"lon":144.77614459,"code":"10315"},{"id":"10316","name":"Kings Rd/Main Rd West","lat":-37.74212071,"lon":144.78029512,"code":"10316"},{"id":"10317","name":"Buchanan St/Main Rd West","lat":-37.74249035,"lon":144.78365448,"code":"10317"},{"id":"10318","name":"Cleveland St/Main Rd West","lat":-37.74284422,"lon":144.78713917,"code":"10318"},{"id":"1032","name":"Church St/High St","lat":-37.64552951,"lon":145.02638138,"code":"1032"},{"id":"10320","name":"Carberry Dr/Gisborne-Melton Rd","lat":-37.67319695,"lon":144.59810714,"code":"10320"},{"id":"10321","name":"Riddle Dr/Centenary Ave","lat":-37.67587984,"lon":144.59444926,"code":"10321"},{"id":"10322","name":"Raleighs Rd/Centenary Ave","lat":-37.67522817,"lon":144.58901698,"code":"10322"},{"id":"10323","name":"Kurunjang Dr/Centenary Ave","lat":-37.67454085,"lon":144.58493511,"code":"10323"},{"id":"10324","name":"Melton Cemetery/O'Neills Rd","lat":-37.67486942,"lon":144.57811067,"code":"10324"},{"id":"10325","name":"Cassia Rd/O'Neills Rd","lat":-37.67830775,"lon":144.57747729,"code":"10325"},{"id":"10326","name":"Church St/O'Neills Rd","lat":-37.68150099,"lon":144.57763417,"code":"10326"},{"id":"10327","name":"Alexandra St/Unitt St","lat":-37.68197986,"lon":144.58032849,"code":"10327"},{"id":"10328","name":"Joyce St/High St","lat":-37.6839206,"lon":144.5726004,"code":"10328"},{"id":"1033","name":"High St/Manningham Rd","lat":-37.77457524,"lon":145.11572468,"code":"1033"},{"id":"10336","name":"Prior Ct/Black Dog Dr","lat":-37.69296045,"lon":144.55827782,"code":"10336"},{"id":"10339","name":"Emms St/Settlement Rd","lat":-37.69699384,"lon":145.05163628,"code":"10339"},{"id":"1034","name":"Wedge St/High St","lat":-37.65046773,"lon":145.02474315,"code":"1034"},{"id":"10340","name":"Green St/Settlement Rd","lat":-37.69427296,"lon":145.038098,"code":"10340"},{"id":"10341","name":"Norris Bank Primary School/Settlement Rd","lat":-37.69480568,"lon":145.04249573,"code":"10341"},{"id":"10343","name":"Brand Dr/Settlement Rd","lat":-37.69391942,"lon":145.03472764,"code":"10343"},{"id":"10344","name":"Wood St/Settlement Rd","lat":-37.69362854,"lon":145.03187735,"code":"10344"},{"id":"10345","name":"Finton Gr/Keon Pde","lat":-37.69528114,"lon":145.01648877,"code":"10345"},{"id":"10346","name":"Keon Park Station/Keon Pde","lat":-37.69488962,"lon":145.01304011,"code":"10346"},{"id":"10347","name":"High St/Mahoneys Rd","lat":-37.69455242,"lon":145.00961271,"code":"10347"},{"id":"10348","name":"Edgars Rd/Mahoneys Rd","lat":-37.69383767,"lon":145.00252094,"code":"10348"},{"id":"10349","name":"Lipton Dr/Mahoneys Rd","lat":-37.69331701,"lon":144.99732938,"code":"10349"},{"id":"1035","name":"Thompsons Heights Shops/Thompsons Rd","lat":-37.77521266,"lon":145.09150235,"code":"1035"},{"id":"10350","name":"Callander St/Mahoneys Rd","lat":-37.69313478,"lon":144.99562179,"code":"10350"},{"id":"10351","name":"Clay Ct/Mahoneys Rd","lat":-37.69278595,"lon":144.99207013,"code":"10351"},{"id":"10352","name":"Lawson Cres/Mahoneys Rd","lat":-37.69217805,"lon":144.98601918,"code":"10352"},{"id":"10353","name":"Lockton Ave/Mahoneys Rd","lat":-37.69179804,"lon":144.98224164,"code":"10353"},{"id":"10354","name":"Industrial Ave/Mahoneys Rd","lat":-37.69154717,"lon":144.97969678,"code":"10354"},{"id":"10355","name":"Phillip St/Mahoneys Rd","lat":-37.69114563,"lon":144.9757271,"code":"10355"},{"id":"10356","name":"Sydney Rd/Mahoneys Rd","lat":-37.68952242,"lon":144.95894209,"code":"10356"},{"id":"10357","name":"Cheviot Rd/Mahoneys Rd","lat":-37.68993354,"lon":144.96291132,"code":"10357"},{"id":"10358","name":"Darren Ct/Bernard St","lat":-37.9529432,"lon":145.05947201,"code":"10358"},{"id":"10359","name":"Concord Cct/Oakwood Rd","lat":-37.75089254,"lon":144.76855873,"code":"10359"},{"id":"1036","name":"High St/Mitchell St","lat":-37.77208666,"lon":144.99871396,"code":"1036"},{"id":"10360","name":"Woodland Dr/Oakwood Rd","lat":-37.74604304,"lon":144.76991872,"code":"10360"},{"id":"10361","name":"Evergreen Ave/Oakwood Rd","lat":-37.7442098,"lon":144.77018938,"code":"10361"},{"id":"10362","name":"Leckie Dr/Evergreen Ave","lat":-37.74376007,"lon":144.7683304,"code":"10362"},{"id":"10363","name":"Delamare Dr/Evergreen Ave","lat":-37.74355193,"lon":144.7654315,"code":"10363"},{"id":"10364","name":"Wintersun Dr/Evergreen Ave","lat":-37.74498015,"lon":144.76328907,"code":"10364"},{"id":"10365","name":"Stephen Calleja Reserve/Opie Rd","lat":-37.74375365,"lon":144.76181667,"code":"10365"},{"id":"10366","name":"Main Rd West/Opie Rd","lat":-37.74183024,"lon":144.76303211,"code":"10366"},{"id":"10367","name":"Opie Rd/Main Rd West","lat":-37.74030079,"lon":144.76506402,"code":"10367"},{"id":"10368","name":"Balnarring Dr/Main Rd West","lat":-37.74047544,"lon":144.76667016,"code":"10368"},{"id":"1037","name":"High St/Bastings St","lat":-37.77385752,"lon":144.99845049,"code":"1037"},{"id":"10372","name":"Maplewood Rd/Gillespie Rd","lat":-37.73361903,"lon":144.77531821,"code":"10372"},{"id":"10373","name":"Beverley St/Gillespie Rd","lat":-37.73406595,"lon":144.77942374,"code":"10373"},{"id":"10374","name":"Kings Rd/Gillespie Rd","lat":-37.73425086,"lon":144.78158547,"code":"10374"},{"id":"10375","name":"Glenrosa Ct/Gillespie Rd","lat":-37.73461976,"lon":144.78538703,"code":"10375"},{"id":"10376","name":"Atheldene Dr/Gillespie Rd","lat":-37.73492939,"lon":144.78891806,"code":"10376"},{"id":"10377","name":"Andrew Rd/Jamieson St","lat":-37.73611719,"lon":144.78882599,"code":"10377"},{"id":"10378","name":"John St/Jamieson St","lat":-37.73894055,"lon":144.78705117,"code":"10378"},{"id":"1038","name":"Andrew St/Bastings St","lat":-37.7744256,"lon":145.00324903,"code":"1038"},{"id":"10381","name":"Parnell St/Bernard St","lat":-37.95339543,"lon":145.06285166,"code":"10381"},{"id":"10385","name":"Regent Pde/Bernard St","lat":-37.95368042,"lon":145.06483587,"code":"10385"},{"id":"10386","name":"Cheltenham Sec Col/Bernard St","lat":-37.95402239,"lon":145.067547,"code":"10386"},{"id":"10387","name":"Willen St/Bernard St","lat":-37.95453925,"lon":145.07158518,"code":"10387"},{"id":"10388","name":"Kingston Centre/Bernard St","lat":-37.95475456,"lon":145.0759272,"code":"10388"},{"id":"10389","name":"Warrigal Rd/Kingston Rd","lat":-37.9534012,"lon":145.07803388,"code":"10389"},{"id":"1039","name":"Sharp St/Bastings St","lat":-37.7748313,"lon":145.00645115,"code":"1039"},{"id":"10390","name":"Kingston Centre/Kingston Rd","lat":-37.95366634,"lon":145.08047391,"code":"10390"},{"id":"10391","name":"St Andrews Dr/Kingston Rd","lat":-37.953993,"lon":145.08282131,"code":"10391"},{"id":"10392","name":"Kingston Heath Golf Club/Kingston Rd","lat":-37.95433869,"lon":145.08634051,"code":"10392"},{"id":"10393","name":"Kingston Rd","lat":-37.95482827,"lon":145.09040232,"code":"10393"},{"id":"10394","name":"Pietro Rd/Kingston Rd","lat":-37.95532671,"lon":145.09446396,"code":"10394"},{"id":"10395","name":"Old Dandenong Rd/Kingston Rd","lat":-37.95597392,"lon":145.09937543,"code":"10395"},{"id":"10397","name":"Peace Rd/Kingston Rd","lat":-37.95691436,"lon":145.10739804,"code":"10397"},{"id":"10398","name":"Heatherton Christian College/Kingston Rd","lat":-37.95741167,"lon":145.1114258,"code":"10398"},{"id":"104","name":"Eucalypt Ave/Williamsons Rd","lat":-37.77097885,"lon":145.12869041,"code":"104"},{"id":"1040","name":"Northcote St/Bastings St","lat":-37.7749931,"lon":145.00802495,"code":"1040"},{"id":"10400","name":"Victory Rd/Clayton Rd","lat":-37.95324117,"lon":145.11435514,"code":"10400"},{"id":"10402","name":"Unitt St/O'Neills Rd","lat":-37.68191942,"lon":144.57782465,"code":"10402"},{"id":"10403","name":"Alexandra St/Unitt St","lat":-37.68214694,"lon":144.5796881,"code":"10403"},{"id":"10404","name":"Joyce St/High St","lat":-37.68403627,"lon":144.57252859,"code":"10404"},{"id":"1041","name":"Johnson Park/Bastings St","lat":-37.77530745,"lon":145.01062783,"code":"1041"},{"id":"10414","name":"High St/Trethowan Ave","lat":-37.68484374,"lon":144.55448477,"code":"10414"},{"id":"10415","name":"Helen Ct/Trethowan Ave","lat":-37.68439424,"lon":144.55106388,"code":"10415"},{"id":"10416","name":"Bulmans Rd/Westlake Dr","lat":-37.68295982,"lon":144.54925154,"code":"10416"},{"id":"1042","name":"Russell St/Bastings St","lat":-37.77565718,"lon":145.01372936,"code":"1042"},{"id":"10421","name":"Warrigal Rd/Waverley Rd","lat":-37.8805105,"lon":145.09222114,"code":"10421"},{"id":"10422","name":"Margot St/Waverley Rd","lat":-37.88088045,"lon":145.09558847,"code":"10422"},{"id":"10423","name":"Amaroo St/Waverley Rd","lat":-37.88125988,"lon":145.09843256,"code":"10423"},{"id":"10424","name":"Baradine St/Waverley Rd","lat":-37.88159622,"lon":145.10140287,"code":"10424"},{"id":"10426","name":"Nyrang St/Huntingdale Rd","lat":-37.88133384,"lon":145.10917533,"code":"10426"},{"id":"10427","name":"Melinga Cres/Huntingdale Rd","lat":-37.87814434,"lon":145.1097799,"code":"10427"},{"id":"10428","name":"Burton St/Huntingdale Rd","lat":-37.87634709,"lon":145.1100987,"code":"10428"},{"id":"10429","name":"Jordanville Station/Huntingdale Rd","lat":-37.87245549,"lon":145.11075522,"code":"10429"},{"id":"1043","name":"Grandview Gr/Bastings St","lat":-37.77579494,"lon":145.01495187,"code":"1043"},{"id":"10430","name":"Electra Ave/Huntingdale Rd","lat":-37.87059608,"lon":145.1111324,"code":"10430"},{"id":"10431","name":"High Street Rd/Huntingdale Rd","lat":-37.86745142,"lon":145.11172426,"code":"10431"},{"id":"10432","name":"Sylvan Cres/Huntingdale Rd","lat":-37.86622959,"lon":145.11196007,"code":"10432"},{"id":"10433","name":"Essex Heights Reserve/Huntingdale Rd","lat":-37.86353405,"lon":145.11246082,"code":"10433"},{"id":"10434","name":"Eildon Rd/Huntingdale Rd","lat":-37.86220448,"lon":145.11272209,"code":"10434"},{"id":"10435","name":"Arthur St/Huntingdale Rd","lat":-37.85988546,"lon":145.11309951,"code":"10435"},{"id":"10436","name":"Leyland Rd/Huntingdale Rd","lat":-37.85745115,"lon":145.11359351,"code":"10436"},{"id":"10437","name":"Peacock St/Highbury Rd","lat":-37.85555133,"lon":145.11482401,"code":"10437"},{"id":"10438","name":"Station St/Highbury Rd","lat":-37.85595755,"lon":145.11824624,"code":"10438"},{"id":"10439","name":"Goold St/Station St","lat":-37.85450301,"lon":145.11914703,"code":"10439"},{"id":"1044","name":"Duncan St/Rathmines St","lat":-37.77640378,"lon":145.01632074,"code":"1044"},{"id":"10440","name":"Talbett St/Station St","lat":-37.85309253,"lon":145.11942156,"code":"10440"},{"id":"10441","name":"Station St/Burwood Hwy","lat":-37.85066567,"lon":145.11925592,"code":"10441"},{"id":"10442","name":"Deakin University/Burwood Hwy","lat":-37.85017687,"lon":145.11517685,"code":"10442"},{"id":"10443","name":"Presbyterian Ladies College/Elgar Rd","lat":-37.84890651,"lon":145.10901525,"code":"10443"},{"id":"10444","name":"Daniel St/Elgar Rd","lat":-37.84695683,"lon":145.10938327,"code":"10444"},{"id":"10445","name":"Deakin University/Elgar Rd","lat":-37.84388387,"lon":145.10995041,"code":"10445"},{"id":"10446","name":"Cadorna St/Elgar Rd","lat":-37.84172718,"lon":145.11033502,"code":"10446"},{"id":"10447","name":"Wattle Park/Elgar Rd","lat":-37.83768868,"lon":145.11082444,"code":"10447"},{"id":"1045","name":"Wingrove St/Rathmines St","lat":-37.77764399,"lon":145.01611728,"code":"1045"},{"id":"10451","name":"Corrigan Rd/Henderson Rd","lat":-37.98191686,"lon":145.1644922,"code":"10451"},{"id":"10452","name":"Walnut Cres/Henderson Rd","lat":-37.98175828,"lon":145.16299325,"code":"10452"},{"id":"10453","name":"Alderney Rd/Henderson Rd","lat":-37.98153163,"lon":145.16117721,"code":"10453"},{"id":"10454","name":"Gwent St/Paterson Rd","lat":-37.97963185,"lon":145.15553199,"code":"10454"},{"id":"10455","name":"Northgate Dr/Paterson Rd","lat":-37.97918677,"lon":145.15186571,"code":"10455"},{"id":"10456","name":"Springvale Rd/Paterson Rd","lat":-37.97870161,"lon":145.14795001,"code":"10456"},{"id":"10457","name":"Springvale Rd/Clarke Rd","lat":-37.97738313,"lon":145.14605911,"code":"10457"},{"id":"10458","name":"Kingston Gardens Aged Care/Clarke Rd","lat":-37.9757183,"lon":145.14506499,"code":"10458"},{"id":"1046","name":"Fairfield Station/Wingrove St","lat":-37.7788634,"lon":145.01788998,"code":"1046"},{"id":"10460","name":"Spring Rd/Clarke Rd","lat":-37.96781307,"lon":145.14038048,"code":"10460"},{"id":"10461","name":"Camelot Dr/Clarke Rd","lat":-37.96537223,"lon":145.13932653,"code":"10461"},{"id":"10462","name":"Spring Parks PS/Clarke Rd","lat":-37.96334269,"lon":145.13863788,"code":"10462"},{"id":"10463","name":"Heatherton Rd/Westall Rd","lat":-37.95958988,"lon":145.13668385,"code":"10463"},{"id":"10465","name":"Bellavista Cres/Westall Rd","lat":-37.95517695,"lon":145.13743273,"code":"10465"},{"id":"10467","name":"Thames Ave/Westall Rd","lat":-37.95213993,"lon":145.13799882,"code":"10467"},{"id":"10468","name":"Spring Valley Dr/Westall Rd","lat":-37.9479084,"lon":145.13882262,"code":"10468"},{"id":"1047","name":"Fairfield Community Centre/Station St","lat":-37.77667332,"lon":145.01841399,"code":"1047"},{"id":"10470","name":"Westall SC/Rosebank Ave","lat":-37.94076775,"lon":145.13975381,"code":"10470"},{"id":"10472","name":"Rosebank Ave/Wordsworth Ave","lat":-37.93881793,"lon":145.13158738,"code":"10472"},{"id":"10473","name":"Oakes Ave/Wordsworth Ave","lat":-37.93670679,"lon":145.13200496,"code":"10473"},{"id":"10474","name":"Milton Ave/Oakes Ave","lat":-37.93544863,"lon":145.13052348,"code":"10474"},{"id":"10475","name":"Bevan Ave/Oakes Ave","lat":-37.93515987,"lon":145.12823237,"code":"10475"},{"id":"10476","name":"Mallawa St/Main Rd","lat":-37.9342997,"lon":145.1274122,"code":"10476"},{"id":"10477","name":"McMillan St/Main Rd","lat":-37.93271879,"lon":145.12773677,"code":"10477"},{"id":"10478","name":"Centre Rd/Haughton Rd","lat":-37.92985627,"lon":145.12680816,"code":"10478"},{"id":"10479","name":"Audsley St/Centre Rd","lat":-37.92906262,"lon":145.12281208,"code":"10479"},{"id":"1048","name":"Mitchell St/Station St","lat":-37.7741212,"lon":145.01884544,"code":"1048"},{"id":"10481","name":"St Bedes College/Naples Rd","lat":-37.99018411,"lon":145.06851141,"code":"10481"},{"id":"10482","name":"Olive St/Clayton Rd","lat":-37.92971986,"lon":145.11882461,"code":"10482"},{"id":"10483","name":"Kimbarra St/Clayton Rd","lat":-37.9319466,"lon":145.11831274,"code":"10483"},{"id":"10484","name":"Byron St/Clayton Rd","lat":-37.93496679,"lon":145.1178261,"code":"10484"},{"id":"10485","name":"Whiteside Rd/Clayton Rd","lat":-37.93835484,"lon":145.11723901,"code":"10485"},{"id":"10486","name":"Clayton South PS/Clayton Rd","lat":-37.94082533,"lon":145.11675493,"code":"10486"},{"id":"10488","name":"Murphy St/Bourke Rd","lat":-37.9428757,"lon":145.1153598,"code":"10488"},{"id":"10489","name":"Allwen Ct/Bourke Rd","lat":-37.94252127,"lon":145.11236467,"code":"10489"},{"id":"1049","name":"Separation St/Station St","lat":-37.77113842,"lon":145.01939053,"code":"1049"},{"id":"10490","name":"Glenelg Dr/Bourke Rd","lat":-37.94220974,"lon":145.1098009,"code":"10490"},{"id":"10491","name":"Springs Rd/Bourke Rd","lat":-37.94179765,"lon":145.1065911,"code":"10491"},{"id":"10492","name":"Clarinda SC/Bourke Rd","lat":-37.9413522,"lon":145.1029953,"code":"10492"},{"id":"10494","name":"Clarinda Rd/Bourke Rd","lat":-37.94092338,"lon":145.09931947,"code":"10494"},{"id":"10495","name":"Angus Ct/Bourke Rd","lat":-37.94042201,"lon":145.09562279,"code":"10495"},{"id":"10496","name":"Cedar Ct/Bourke Rd","lat":-37.94009432,"lon":145.09319613,"code":"10496"},{"id":"10497","name":"Barkers St/Old Dandenong Rd","lat":-37.93791432,"lon":145.08936095,"code":"10497"},{"id":"10498","name":"Washington Dr/Old Dandenong Rd","lat":-37.93596162,"lon":145.08731788,"code":"10498"},{"id":"10499","name":"Commonwealth Golf Club/Old Dandenong Rd","lat":-37.9339687,"lon":145.08446812,"code":"10499"},{"id":"105","name":"Trenerry Cres/Johnston St","lat":-37.80048422,"lon":145.00037819,"code":"105"},{"id":"1050","name":"Edwin St/Station St","lat":-37.76932246,"lon":145.01965469,"code":"1050"},{"id":"10500","name":"Tecoma Ct/Old Dandenong Rd","lat":-37.93237986,"lon":145.08208588,"code":"10500"},{"id":"10501","name":"Warrigal Rd/South Rd","lat":-37.93863706,"lon":145.07840718,"code":"10501"},{"id":"10502","name":"Kingsway/South Rd","lat":-37.93809268,"lon":145.07432502,"code":"10502"},{"id":"10503","name":"Alex Ave/South Rd","lat":-37.93768714,"lon":145.07102441,"code":"10503"},{"id":"10504","name":"Bignell Rd/South Rd","lat":-37.93748641,"lon":145.06812811,"code":"10504"},{"id":"10505","name":"Sullivan St/South Rd","lat":-37.93693548,"lon":145.06421694,"code":"10505"},{"id":"10507","name":"Chesterville Rd/South Rd","lat":-37.93644315,"lon":145.06058875,"code":"10507"},{"id":"10508","name":"Rowans Rd/South Rd","lat":-37.93608075,"lon":145.05664998,"code":"10508"},{"id":"1051","name":"Darebin Rd/Station St","lat":-37.76666243,"lon":145.02010028,"code":"1051"},{"id":"10510","name":"Fletcher St/South Rd","lat":-37.93530908,"lon":145.05194833,"code":"10510"},{"id":"10511","name":"Delhi St/Mitcham Rd","lat":-37.8190587,"lon":145.19395873,"code":"10511"},{"id":"10512","name":"Agra St/Mitcham Rd","lat":-37.82085457,"lon":145.19411946,"code":"10512"},{"id":"10513","name":"Lucknow St/Mitcham Rd","lat":-37.82437318,"lon":145.19437454,"code":"10513"},{"id":"10514","name":"Orient Ave/Mitcham Rd","lat":-37.82698121,"lon":145.19460638,"code":"10514"},{"id":"10515","name":"Vernal Ave/Mitcham Rd","lat":-37.82843405,"lon":145.19473004,"code":"10515"},{"id":"10516","name":"Picadilly St/Golf Rd","lat":-37.91358532,"lon":145.08897823,"code":"10516"},{"id":"10517","name":"Metropolitan Golf Club/Golf Rd","lat":-37.91114197,"lon":145.08946232,"code":"10517"},{"id":"10518","name":"North Rd/Golf Links Ave","lat":-37.90872073,"lon":145.09075337,"code":"10518"},{"id":"10519","name":"Ryan St/Blyth St","lat":-37.76746381,"lon":144.98129922,"code":"10519"},{"id":"1052","name":"John Cain Memorial Park/Station St","lat":-37.76317557,"lon":145.02068139,"code":"1052"},{"id":"10520","name":"Lee St/Roberts St","lat":-37.76614856,"lon":144.98237938,"code":"10520"},{"id":"10521","name":"Stewart St/Nicholson St","lat":-37.76495566,"lon":144.98060684,"code":"10521"},{"id":"10522","name":"Glenmorgan St/Nicholson St","lat":-37.76362757,"lon":144.97936022,"code":"10522"},{"id":"10523","name":"Lyndhurst Cres/Nicholson St","lat":-37.76248809,"lon":144.97755228,"code":"10523"},{"id":"10524","name":"Lygon St/Albion St","lat":-37.76194894,"lon":144.97292421,"code":"10524"},{"id":"10525","name":"Leithead St/Albion St","lat":-37.76160186,"lon":144.97003907,"code":"10525"},{"id":"10526","name":"Austin Tce/Albion St","lat":-37.76142077,"lon":144.96842077,"code":"10526"},{"id":"10527","name":"De Carle St/Albion St","lat":-37.76100857,"lon":144.96490179,"code":"10527"},{"id":"10528","name":"Sydney Rd/Albion St","lat":-37.76078548,"lon":144.96294414,"code":"10528"},{"id":"10529","name":"Anstey Station/217 Albion St","lat":-37.76057451,"lon":144.96116778,"code":"10529"},{"id":"1053","name":"Clarendon St/Station St","lat":-37.7614677,"lon":145.0209426,"code":"1053"},{"id":"10530","name":"Austral Ave/Albion St","lat":-37.7600461,"lon":144.95667588,"code":"10530"},{"id":"10531","name":"Patterson St/Albion St","lat":-37.75973998,"lon":144.95409625,"code":"10531"},{"id":"10532","name":"Thistle St/Albion St","lat":-37.75942362,"lon":144.95144882,"code":"10532"},{"id":"10534","name":"Cornwall St/Albion St","lat":-37.75916369,"lon":144.94945821,"code":"10534"},{"id":"10535","name":"Trenoweth St/Albion St","lat":-37.75882763,"lon":144.94672056,"code":"10535"},{"id":"10536","name":"Melville Rd/Albion St","lat":-37.75860969,"lon":144.94455857,"code":"10536"},{"id":"10537","name":"Wales St/Albion St","lat":-37.75828609,"lon":144.94202493,"code":"10537"},{"id":"10538","name":"Gronn Pl/Albion St","lat":-37.75797331,"lon":144.93908239,"code":"10538"},{"id":"10539","name":"Yarrabin St/Albion St","lat":-37.7576592,"lon":144.93658259,"code":"10539"},{"id":"1054","name":"Rossmoyne Village/Station St","lat":-37.75953596,"lon":145.02128921,"code":"1054"},{"id":"10540","name":"Hopetoun St/Albion St","lat":-37.75741883,"lon":144.9346937,"code":"10540"},{"id":"10541","name":"Lawson St/Albion St","lat":-37.75667948,"lon":144.93210363,"code":"10541"},{"id":"10542","name":"Tennyson St/Albion St","lat":-37.75646403,"lon":144.93061135,"code":"10542"},{"id":"10543","name":"McPherson St/Albion St","lat":-37.75629323,"lon":144.92858437,"code":"10543"},{"id":"10544","name":"Pascoe Vale Rd/Albion St","lat":-37.75598449,"lon":144.92640234,"code":"10544"},{"id":"10546","name":"Pascoe Vale Rd/Brewster St","lat":-37.75138259,"lon":144.925044,"code":"10546"},{"id":"10547","name":"Kalimna St/Brewster St","lat":-37.75118787,"lon":144.92319943,"code":"10547"},{"id":"10548","name":"Peterleigh Gr/Brewster St","lat":-37.75097431,"lon":144.92131,"code":"10548"},{"id":"10549","name":"Napier St/Brewster St","lat":-37.75075832,"lon":144.91928446,"code":"10549"},{"id":"10554","name":"Station St/Cheltenham Rd","lat":-37.99144912,"lon":145.20934774,"code":"10554"},{"id":"10555","name":"Cheltenham Rd/George St","lat":-37.98933685,"lon":145.204981,"code":"10555"},{"id":"10556","name":"Langhorne Pl/Langhorne St","lat":-37.98726043,"lon":145.21480126,"code":"10556"},{"id":"10557","name":"Langhorne Pl/Langhorne St","lat":-37.98748286,"lon":145.21520579,"code":"10557"},{"id":"10558","name":"Keneally St/Cheltenham Rd","lat":-37.98999432,"lon":145.20554571,"code":"10558"},{"id":"1056","name":"Dundas St/Albert St","lat":-37.75392777,"lon":145.02058736,"code":"1056"},{"id":"10566","name":"Progress Rd/Wattletree Rd","lat":-37.70275905,"lon":145.1522194,"code":"10566"},{"id":"10567","name":"Banks Rd/Wattletree Rd","lat":-37.6963559,"lon":145.14963367,"code":"10567"},{"id":"10568","name":"Glen Gully Rd/Wattletree Rd","lat":-37.69426649,"lon":145.14742867,"code":"10568"},{"id":"10569","name":"Casuarina Rdge/Wattletree Rd","lat":-37.6906652,"lon":145.14536352,"code":"10569"},{"id":"1057","name":"Bingo St/Albert St","lat":-37.7504227,"lon":145.02115746,"code":"1057"},{"id":"10570","name":"Parry Rd/Ryans Rd","lat":-37.68892677,"lon":145.14256034,"code":"10570"},{"id":"10571","name":"Lesay Dr/Ryans Rd","lat":-37.68604955,"lon":145.14298366,"code":"10571"},{"id":"10574","name":"Happy Valley Rise/Main St","lat":-37.67385589,"lon":145.14812915,"code":"10574"},{"id":"10576","name":"Waigo Way/Brooks Cres","lat":-37.67478685,"lon":145.1575056,"code":"10576"},{"id":"10579","name":"Hotham Ct/James Cook Dr","lat":-37.68006054,"lon":145.15875853,"code":"10579"},{"id":"1058","name":"Oulton Reserve/Albert St","lat":-37.74832919,"lon":145.02153101,"code":"1058"},{"id":"10580","name":"Farrer Cl/James Cook Dr","lat":-37.6795607,"lon":145.1625355,"code":"10580"},{"id":"10581","name":"Patyah St/Phipps Cres","lat":-37.67876527,"lon":145.16469821,"code":"10581"},{"id":"10582","name":"Main Hurstbridge Rd/Phipps Cres","lat":-37.67515911,"lon":145.16519526,"code":"10582"},{"id":"10583","name":"Diamond Creek Plaza/Main Hurstbridge Rd","lat":-37.67436721,"lon":145.15948886,"code":"10583"},{"id":"10587","name":"Amaroo Ct/Broad Gully Rd","lat":-37.66891756,"lon":145.15735598,"code":"10587"},{"id":"10588","name":"Ryan St/Broad Gully Rd","lat":-37.66934623,"lon":145.15364931,"code":"10588"},{"id":"10589","name":"Grassy Flat Rd/Broad Gully Rd","lat":-37.66941438,"lon":145.15109665,"code":"10589"},{"id":"1059","name":"Ovando St/Albert St","lat":-37.74603732,"lon":145.02189848,"code":"1059"},{"id":"10590","name":"Clyde St/Collins St","lat":-37.6720061,"lon":145.14970578,"code":"10590"},{"id":"10592","name":"Nillumbik Park/Chute St","lat":-37.67332564,"lon":145.15397019,"code":"10592"},{"id":"10595","name":"Beech St/Alexander Ave","lat":-37.68058701,"lon":145.01728844,"code":"10595"},{"id":"10596","name":"Frederick St/Alexander Ave","lat":-37.68094756,"lon":145.02051051,"code":"10596"},{"id":"10597","name":"Acacia St/Alexander Ave","lat":-37.68125482,"lon":145.02324643,"code":"10597"},{"id":"10598","name":"Nick Ascenzo Reserve/Alexander Ave","lat":-37.68168775,"lon":145.02703361,"code":"10598"},{"id":"10599","name":"Smith Ave/Darebin Dr","lat":-37.68181342,"lon":145.03131654,"code":"10599"},{"id":"106","name":"Clarke St/Johnston St","lat":-37.80062579,"lon":145.00181677,"code":"106"},{"id":"1060","name":"Eton St/Albert St","lat":-37.74388095,"lon":145.02228501,"code":"1060"},{"id":"10600","name":"Chapman Ave/Darebin Dr","lat":-37.68188338,"lon":145.03388873,"code":"10600"},{"id":"10601","name":"Bates Ave/Darebin Dr","lat":-37.68016996,"lon":145.03544206,"code":"10601"},{"id":"10602","name":"Valentine Ave/Darebin Dr","lat":-37.67866901,"lon":145.03568576,"code":"10602"},{"id":"10603","name":"McKimmies Rd/Darebin Dr","lat":-37.67607171,"lon":145.03611709,"code":"10603"},{"id":"10604","name":"Lalor Plaza/Darebin Dr","lat":-37.67404999,"lon":145.03647653,"code":"10604"},{"id":"10605","name":"Donald St/Darebin Dr","lat":-37.66924484,"lon":145.03583224,"code":"10605"},{"id":"10606","name":"Hertford Pl/Darebin Dr","lat":-37.66660876,"lon":145.03501745,"code":"10606"},{"id":"10607","name":"Dalton Rd/Burton St","lat":-37.66709852,"lon":145.03142201,"code":"10607"},{"id":"10608","name":"49 Burton St","lat":-37.66695776,"lon":145.03000859,"code":"10608"},{"id":"10609","name":"Ruthven Cres/Burton St","lat":-37.66663996,"lon":145.0271714,"code":"10609"},{"id":"1061","name":"Blake Park/Albert St","lat":-37.74162795,"lon":145.02282161,"code":"1061"},{"id":"10610","name":"Cherry Ct/Edmondson St","lat":-37.66587198,"lon":145.02490169,"code":"10610"},{"id":"10611","name":"Edmondson St/Curtin Ave","lat":-37.66452824,"lon":145.02376963,"code":"10611"},{"id":"10612","name":"Newton Cres/Curtin Ave","lat":-37.66515227,"lon":145.02121364,"code":"10612"},{"id":"10617","name":"Lalor SC/Station St","lat":-37.67312663,"lon":145.015775,"code":"10617"},{"id":"10618","name":"Heath St/Station St","lat":-37.67654127,"lon":145.01518514,"code":"10618"},{"id":"10621","name":"Heather Ave/Spring St","lat":-37.68184381,"lon":145.00524665,"code":"10621"},{"id":"10622","name":"Johnson St/Spring St","lat":-37.68226084,"lon":145.00912488,"code":"10622"},{"id":"10623","name":"McLeod St/Spring St","lat":-37.68261815,"lon":145.01267591,"code":"10623"},{"id":"10625","name":"RGC Cook Reserve/Victoria Dr","lat":-37.67355042,"lon":144.99130759,"code":"10625"},{"id":"10628","name":"Gillwell Rd/Barry Rd","lat":-37.67151186,"lon":144.99384552,"code":"10628"},{"id":"10631","name":"Franklin Rd/Edgars Rd","lat":-37.67011987,"lon":145.00315707,"code":"10631"},{"id":"10632","name":"Robert St/Edgars Rd","lat":-37.66776806,"lon":145.00424045,"code":"10632"},{"id":"10633","name":"Dion Cl/Edgars Rd","lat":-37.66538614,"lon":145.00514318,"code":"10633"},{"id":"10634","name":"CityLife Church/Kingsway","lat":-37.66460627,"lon":145.00752209,"code":"10634"},{"id":"10635","name":"Lyndon St/Kingsway Dr","lat":-37.66500999,"lon":145.01115038,"code":"10635"},{"id":"10636","name":"Linoak Ave/Kingsway Dr","lat":-37.66524274,"lon":145.01319613,"code":"10636"},{"id":"10638","name":"Mount View Rd/Main St","lat":-37.67979342,"lon":145.00976914,"code":"10638"},{"id":"10639","name":"Main Street Rec Reserve/Main St","lat":-37.67942682,"lon":145.00620717,"code":"10639"},{"id":"10640","name":"Simpson St/Main St","lat":-37.67895487,"lon":145.0017523,"code":"10640"},{"id":"10644","name":"Alexina St/Alfrieda St","lat":-37.74031273,"lon":144.80113836,"code":"10644"},{"id":"10645","name":"Westvale Church/Alfrieda St","lat":-37.73775346,"lon":144.8016226,"code":"10645"},{"id":"10646","name":"Collins St/Biggs St","lat":-37.73697864,"lon":144.8025987,"code":"10646"},{"id":"10647","name":"Walmer Ave/Biggs St","lat":-37.73743546,"lon":144.80631849,"code":"10647"},{"id":"10648","name":"Leslie St/Biggs St","lat":-37.73776742,"lon":144.80914556,"code":"10648"},{"id":"1065","name":"40 Dorking Rd","lat":-37.81636664,"lon":145.13116873,"code":"1065"},{"id":"10655","name":"Sunshine Ave/Stenson Rd","lat":-37.73921615,"lon":144.82459246,"code":"10655"},{"id":"10656","name":"Driscolls Rd/Stenson Rd","lat":-37.73827016,"lon":144.82802443,"code":"10656"},{"id":"10657","name":"Harefield Cres/Driscolls Rd","lat":-37.73693278,"lon":144.82733729,"code":"10657"},{"id":"10658","name":"Leavesdon Ave/Driscolls Rd","lat":-37.73488199,"lon":144.82559307,"code":"10658"},{"id":"10659","name":"Valewood Dr/Driscolls Rd","lat":-37.73168752,"lon":144.82291796,"code":"10659"},{"id":"1066","name":"Crevelli St/Tyler St","lat":-37.73267569,"lon":145.02907373,"code":"1066"},{"id":"10660","name":"Green Gully Rd/Driscolls Rd","lat":-37.72832293,"lon":144.82079269,"code":"10660"},{"id":"10661","name":"Hedgeley Rd/Green Gully Rd","lat":-37.72876499,"lon":144.81789781,"code":"10661"},{"id":"10662","name":"Sunshine Ave/Taylors Rd","lat":-37.72950426,"lon":144.81305397,"code":"10662"},{"id":"10663","name":"Oslo Way/Taylors Rd","lat":-37.72912225,"lon":144.80946847,"code":"10663"},{"id":"10668","name":"Carbine Way/Taylors Rd","lat":-37.72792313,"lon":144.7983167,"code":"10668"},{"id":"10669","name":"Theodore St/Taylors Rd","lat":-37.7280174,"lon":144.80046964,"code":"10669"},{"id":"1067","name":"Burkitt Ct/Tyler St","lat":-37.73287926,"lon":145.03100869,"code":"1067"},{"id":"10670","name":"Keilor Central Shopping Centre/Taylors Rd","lat":-37.72728401,"lon":144.80608485,"code":"10670"},{"id":"10673","name":"Carbine Way/Goodwood Dr","lat":-37.72578853,"lon":144.79548679,"code":"10673"},{"id":"10674","name":"Goodwood Dr/Belmont Ave","lat":-37.7242358,"lon":144.79630432,"code":"10674"},{"id":"10675","name":"Thornhill Dr/Belmont Ave","lat":-37.72362154,"lon":144.79960131,"code":"10675"},{"id":"10676","name":"Belmont Ave/Copernicus Way","lat":-37.7211646,"lon":144.80074045,"code":"10676"},{"id":"10677","name":"Lancia Dr/Copernicus Way","lat":-37.71971679,"lon":144.79849164,"code":"10677"},{"id":"10678","name":"Goodwood Dr/Copernicus Way","lat":-37.71915592,"lon":144.79500277,"code":"10678"},{"id":"10679","name":"Roseberry Ave/Copernicus Way","lat":-37.71779909,"lon":144.79184388,"code":"10679"},{"id":"1068","name":"Seston St/Tyler St","lat":-37.73313429,"lon":145.03332811,"code":"1068"},{"id":"10680","name":"Darebin Ave/Copernicus Way","lat":-37.71506488,"lon":144.78972434,"code":"10680"},{"id":"10681","name":"Lady Nelson Way/Copernicus Way","lat":-37.71266444,"lon":144.78954612,"code":"10681"},{"id":"10682","name":"Lady Nelson Way/Chichester Dr","lat":-37.7117239,"lon":144.79321533,"code":"10682"},{"id":"10683","name":"Cocoparra Cres/Chichester Dr","lat":-37.70960334,"lon":144.79402689,"code":"10683"},{"id":"10684","name":"Reed Cres/Bond Dr","lat":-37.70372693,"lon":144.78485514,"code":"10684"},{"id":"10685","name":"Booth Way/Bond Dr","lat":-37.70204626,"lon":144.78174077,"code":"10685"},{"id":"10687","name":"Ross Smith Ave/Nepean Hwy","lat":-38.14158201,"lon":145.12150864,"code":"10687"},{"id":"10688","name":"O'Grady Ave/Nepean Hwy","lat":-38.13786283,"lon":145.12336113,"code":"10688"},{"id":"10689","name":"Mereweather Ave/Nepean Hwy","lat":-38.13438864,"lon":145.12419173,"code":"10689"},{"id":"1069","name":"Sullivan Memorial Park/Seston St","lat":-37.73187154,"lon":145.03380405,"code":"1069"},{"id":"10690","name":"Allawah Ave/Nepean Hwy","lat":-38.133022,"lon":145.12438645,"code":"10690"},{"id":"10691","name":"Nepean Hwy/Overton Rd","lat":-38.12947882,"lon":145.12541265,"code":"10691"},{"id":"10692","name":"Kananook Ave/Boonong Ave","lat":-38.12568077,"lon":145.12684453,"code":"10692"},{"id":"10693","name":"Fortescue Ave/Boonong Ave","lat":-38.12583517,"lon":145.12804983,"code":"10693"},{"id":"10694","name":"Kananook Primary School/Boonong Ave","lat":-38.12614863,"lon":145.13075692,"code":"10694"},{"id":"10696","name":"Kananook Station/Wells Rd","lat":-38.12120749,"lon":145.13511502,"code":"10696"},{"id":"10697","name":"VicRoads Customer Service Center/Hartnett Dr","lat":-38.11784296,"lon":145.14059599,"code":"10697"},{"id":"10698","name":"Peninsula Bvd/Hartnett Dr","lat":-38.11489466,"lon":145.14106998,"code":"10698"},{"id":"10699","name":"Heversham Dr/Hartnett Dr","lat":-38.11205518,"lon":145.1415868,"code":"10699"},{"id":"107","name":"Roseland Gr/St Elmo Rd","lat":-37.76064245,"lon":145.0465506,"code":"107"},{"id":"1070","name":"Clingin St/Seston St","lat":-37.72915851,"lon":145.03431833,"code":"1070"},{"id":"10701","name":"Boonong Ave/Fortescue Ave","lat":-38.12551625,"lon":145.12782982,"code":"10701"},{"id":"10702","name":"Buna Ave/Fortescue Ave","lat":-38.12331478,"lon":145.12822828,"code":"10702"},{"id":"10703","name":"McCulloch Ave/Fortescue Ave","lat":-38.12107544,"lon":145.12851361,"code":"10703"},{"id":"10704","name":"Milne Ave/Fortescue Ave","lat":-38.11830036,"lon":145.12910918,"code":"10704"},{"id":"10705","name":"Moresby Ave/Fortescue Ave","lat":-38.11639632,"lon":145.12951137,"code":"10705"},{"id":"10706","name":"Bardia Ave/Fortescue Ave","lat":-38.11376499,"lon":145.13008037,"code":"10706"},{"id":"10707","name":"Seaford Rd/Fortescue Ave","lat":-38.11099109,"lon":145.13018533,"code":"10707"},{"id":"10708","name":"Johnstone St/Railway Pde","lat":-38.10933611,"lon":145.12981694,"code":"10708"},{"id":"10709","name":"Seaford Station/Railway Pde","lat":-38.10418017,"lon":145.12860269,"code":"10709"},{"id":"1071","name":"Caddy Ct/Clingin St","lat":-37.7287497,"lon":145.03250235,"code":"1071"},{"id":"10710","name":"Seaford North Reserve/Railway Pde","lat":-38.10030349,"lon":145.12849633,"code":"10710"},{"id":"10711","name":"Selsey St/Railway Pde","lat":-38.09634756,"lon":145.12850603,"code":"10711"},{"id":"10712","name":"Armstrongs Rd/Railway Pde","lat":-38.09294056,"lon":145.12846751,"code":"10712"},{"id":"10713","name":"Arthur St/Railway Pde","lat":-38.09159783,"lon":145.12846755,"code":"10713"},{"id":"10714","name":"Coolibar Ave/Railway Pde","lat":-38.08891321,"lon":145.12795451,"code":"10714"},{"id":"10715","name":"Attunga Cres/Railway Pde","lat":-38.08510278,"lon":145.12748163,"code":"10715"},{"id":"10716","name":"Burrawong Ave/Railway Pde","lat":-38.08300738,"lon":145.12775172,"code":"10716"},{"id":"10717","name":"Kalimna St/Eel Race Rd","lat":-38.08176623,"lon":145.12621003,"code":"10717"},{"id":"1072","name":"Progress Park/Chaleyer St","lat":-37.72849381,"lon":145.02959308,"code":"1072"},{"id":"10720","name":"Sugar Berry Rise/Scarlet Oak Ave","lat":-37.6591171,"lon":144.5667097,"code":"10720"},{"id":"10721","name":"Stewart St/Nicholson St","lat":-37.76557525,"lon":144.98047647,"code":"10721"},{"id":"10722","name":"Glenmorgan St/Nicholson St","lat":-37.76358998,"lon":144.97927043,"code":"10722"},{"id":"10723","name":"Lyndhust Cres/Nicholson St","lat":-37.76261376,"lon":144.97804832,"code":"10723"},{"id":"10724","name":"Lygon St/Albion St","lat":-37.7620623,"lon":144.9732276,"code":"10724"},{"id":"10725","name":"Barrow St/Albion St","lat":-37.76159228,"lon":144.96948311,"code":"10725"},{"id":"10726","name":"Mountfield St/Albion St","lat":-37.7614523,"lon":144.96815883,"code":"10726"},{"id":"10727","name":"De Carle St/Albion St","lat":-37.76107123,"lon":144.96487737,"code":"10727"},{"id":"10728","name":"Sydney Rd/Albion St","lat":-37.76090299,"lon":144.96348577,"code":"10728"},{"id":"10729","name":"Anstey Station/222 Albion St","lat":-37.76053473,"lon":144.96043104,"code":"10729"},{"id":"1073","name":"Eisenhower St/Chaleyer St","lat":-37.72829382,"lon":145.02787373,"code":"1073"},{"id":"10730","name":"Austral Ave/Albion St","lat":-37.76010014,"lon":144.95667439,"code":"10730"},{"id":"10731","name":"Westbourne St/Albion St","lat":-37.75949884,"lon":144.95162836,"code":"10731"},{"id":"10733","name":"Hamilton St/Albion St","lat":-37.75920261,"lon":144.94910526,"code":"10733"},{"id":"10734","name":"Wallace St/Albion St","lat":-37.75893948,"lon":144.94693314,"code":"10734"},{"id":"10735","name":"Melville Rd/Albion St","lat":-37.75875183,"lon":144.94547406,"code":"10735"},{"id":"10736","name":"Bent St/Albion St","lat":-37.75838132,"lon":144.94231741,"code":"10736"},{"id":"10737","name":"Gronn Pl/Albion St","lat":-37.75799152,"lon":144.93909323,"code":"10737"},{"id":"10738","name":"Yarrabin St/Albion St","lat":-37.75769185,"lon":144.93638872,"code":"10738"},{"id":"10739","name":"Waxman Pde/Albion St","lat":-37.75748227,"lon":144.93471464,"code":"10739"},{"id":"10740","name":"Lawson St/Albion St","lat":-37.75693284,"lon":144.93267545,"code":"10740"},{"id":"10741","name":"Tennyson St/Albion St","lat":-37.75666215,"lon":144.93111661,"code":"10741"},{"id":"10742","name":"McPherson St/Albion St","lat":-37.7563833,"lon":144.92858185,"code":"10742"},{"id":"10743","name":"Pascoe Vale Rd/Albion St","lat":-37.7561324,"lon":144.92661387,"code":"10743"},{"id":"10744","name":"Raleigh St/Pascoe Vale Rd","lat":-37.75415222,"lon":144.92572708,"code":"10744"},{"id":"10745","name":"Pascoe Vale Rd/Brewster St","lat":-37.75148328,"lon":144.92462124,"code":"10745"},{"id":"10746","name":"Shaftesbury St/Brewster St","lat":-37.75121671,"lon":144.9222793,"code":"10746"},{"id":"10747","name":"Napier St/Brewster St","lat":-37.75087501,"lon":144.91874775,"code":"10747"},{"id":"10748","name":"Mashoobra St/Boundary Rd","lat":-37.71865906,"lon":144.95692874,"code":"10748"},{"id":"10749","name":"Adler Gr/Boundary Rd","lat":-37.71836352,"lon":144.95391915,"code":"10749"},{"id":"1075","name":"Dorrington Ave/Albert St","lat":-37.72652874,"lon":145.02472094,"code":"1075"},{"id":"10750","name":"Shorts Rd/Lorensen Ave","lat":-37.72352161,"lon":144.96086819,"code":"10750"},{"id":"10751","name":"Athol Ave/Shorts Rd","lat":-37.72354222,"lon":144.95789508,"code":"10751"},{"id":"10752","name":"Guilfoyle Ave/Shorts Rd","lat":-37.72318478,"lon":144.95443317,"code":"10752"},{"id":"10756","name":"Merbein St/Sussex St","lat":-37.71753264,"lon":144.95174115,"code":"10756"},{"id":"10757","name":"Kingsley College/South St","lat":-37.71545421,"lon":144.94985851,"code":"10757"},{"id":"10758","name":"Pascoe Vale Gardens Ret Village/South St","lat":-37.71502252,"lon":144.94628563,"code":"10758"},{"id":"10759","name":"Princess St/South St","lat":-37.71465911,"lon":144.94301719,"code":"10759"},{"id":"1076","name":"Fenwick St/Chadstone Rd","lat":-37.88227985,"lon":145.07911119,"code":"1076"},{"id":"10760","name":"Cumberland Rd/South St","lat":-37.71443728,"lon":144.94115154,"code":"10760"},{"id":"10761","name":"West St/South St","lat":-37.71402473,"lon":144.93765764,"code":"10761"},{"id":"10762","name":"Walter St/West St","lat":-37.71169524,"lon":144.9374046,"code":"10762"},{"id":"10763","name":"Ila St/West St","lat":-37.70987168,"lon":144.93773875,"code":"10763"},{"id":"10764","name":"West St/Glenroy Rd","lat":-37.70739284,"lon":144.93770539,"code":"10764"},{"id":"10765","name":"Sewell Reserve/Glenroy Rd","lat":-37.70708278,"lon":144.9349236,"code":"10765"},{"id":"10766","name":"Northern Golf Club/Glenroy Rd","lat":-37.70654888,"lon":144.93017439,"code":"10766"},{"id":"10768","name":"Glenroy College/Cardinal Rd","lat":-37.70468726,"lon":144.92885372,"code":"10768"},{"id":"10769","name":"St Agnes Ct/Melbourne Ave","lat":-37.70354051,"lon":144.92616345,"code":"10769"},{"id":"10772","name":"Jeffrey St/Lauricella Ave","lat":-37.74565731,"lon":144.86138941,"code":"10772"},{"id":"10773","name":"St Damians Primary School/Settlement Rd","lat":-37.69764146,"lon":145.05647361,"code":"10773"},{"id":"10774","name":"Arcade Sq/West Gtwy","lat":-37.74537607,"lon":144.85533728,"code":"10774"},{"id":"10775","name":"Sterling Dr/Norwood Dr","lat":-37.74183769,"lon":144.85254564,"code":"10775"},{"id":"10776","name":"Bond Ct/Sterling Dr","lat":-37.74175311,"lon":144.86077551,"code":"10776"},{"id":"10778","name":"Buckley St/Milleara Rd","lat":-37.75213766,"lon":144.86144117,"code":"10778"},{"id":"10779","name":"Chaumont Dr/Milleara Rd","lat":-37.75519703,"lon":144.86019534,"code":"10779"},{"id":"10780","name":"Holden Ave/Military Rd","lat":-37.75702951,"lon":144.85987012,"code":"10780"},{"id":"10781","name":"Ridley Ave/Military Rd","lat":-37.76090433,"lon":144.86134759,"code":"10781"},{"id":"10782","name":"Westminster Dr/Military Rd","lat":-37.76347411,"lon":144.86242007,"code":"10782"},{"id":"10783","name":"Alexander St/Military Rd","lat":-37.76712599,"lon":144.86402907,"code":"10783"},{"id":"10784","name":"Riverside Ave/Military Rd","lat":-37.76962307,"lon":144.86506976,"code":"10784"},{"id":"10785","name":"Glenside St/Canning St","lat":-37.77076024,"lon":144.86864718,"code":"10785"},{"id":"10786","name":"Rosamond Rd/Mitchell St","lat":-37.7832438,"lon":144.88477541,"code":"10786"},{"id":"10787","name":"Prince St/Mitchell St","lat":-37.78350763,"lon":144.88742487,"code":"10787"},{"id":"10788","name":"Birdwood St/Gordon St","lat":-37.7852221,"lon":144.89056676,"code":"10788"},{"id":"10789","name":"Owen St/Gordon St","lat":-37.78746778,"lon":144.89016225,"code":"10789"},{"id":"1079","name":"Preston Primary School/Tyler St","lat":-37.73085628,"lon":145.01143231,"code":"1079"},{"id":"10790","name":"Ballarat Rd/Gordon St","lat":-37.79079023,"lon":144.88949995,"code":"10790"},{"id":"10791","name":"Commercial Rd/Ballarat Rd","lat":-37.79211125,"lon":144.8923127,"code":"10791"},{"id":"10792","name":"Victoria University/Ballarat Rd","lat":-37.79301253,"lon":144.89534187,"code":"10792"},{"id":"10793","name":"Wentworth Dr/McCubbin Dr","lat":-37.69370345,"lon":144.77467472,"code":"10793"},{"id":"10794","name":"Overnewton College/Robertsons Rd","lat":-37.69125971,"lon":144.77363643,"code":"10794"},{"id":"10795","name":"64 Robertsons Rd","lat":-37.68716304,"lon":144.77764847,"code":"10795"},{"id":"10796","name":"Carnarvon Cl/Palmerston Cres","lat":-37.68596344,"lon":144.78046246,"code":"10796"},{"id":"10797","name":"Warrego Pl/Palmerston Cres","lat":-37.68859185,"lon":144.78269743,"code":"10797"},{"id":"10798","name":"MacKenzie Cl/Wellesley Dr","lat":-37.69038404,"lon":144.78695332,"code":"10798"},{"id":"10799","name":"Lawson Ct/Wellesley Dr","lat":-37.69203088,"lon":144.79019308,"code":"10799"},{"id":"108","name":"Ramu Pde/Waterdale Rd","lat":-37.73571087,"lon":145.04899902,"code":"108"},{"id":"1080","name":"Tennyson Ave/Tyler St","lat":-37.73053912,"lon":145.00866085,"code":"1080"},{"id":"10800","name":"Nordic Ave/Wellesley Dr","lat":-37.6941928,"lon":144.79303213,"code":"10800"},{"id":"10801","name":"Penrhyn Ct/Verona Dr","lat":-37.69555572,"lon":144.79555478,"code":"10801"},{"id":"10802","name":"Truro Cres/Verona Dr","lat":-37.69883998,"lon":144.79721542,"code":"10802"},{"id":"10803","name":"Taylors Lakes SC/Melton Hwy","lat":-37.70173138,"lon":144.80052106,"code":"10803"},{"id":"10804","name":"Wyperfeld Ave/Sunshine Ave","lat":-37.71094189,"lon":144.80393531,"code":"10804"},{"id":"10806","name":"Swindon Cres/Odessa Ave","lat":-37.71557726,"lon":144.80556811,"code":"10806"},{"id":"10807","name":"Snowdon Cl/Odessa Ave","lat":-37.71547677,"lon":144.8074315,"code":"10807"},{"id":"10808","name":"Keilor Downs Sec Col/Odessa Ave","lat":-37.71553432,"lon":144.81052674,"code":"10808"},{"id":"10809","name":"Cromer Pl/Odessa Ave","lat":-37.71833977,"lon":144.81213447,"code":"10809"},{"id":"1081","name":"McLaughlin Cres/Redleap Ave","lat":-37.66178228,"lon":145.06633093,"code":"1081"},{"id":"10810","name":"Tarella Dr/Odessa Ave","lat":-37.72118363,"lon":144.81241382,"code":"10810"},{"id":"10811","name":"Antwerp Dr/Odessa Ave","lat":-37.72396941,"lon":144.81199149,"code":"10811"},{"id":"10812","name":"Dongola Rd/Sunshine Ave","lat":-37.72659921,"lon":144.81239061,"code":"10812"},{"id":"10813","name":"Green Gully Rd/Sunshine Ave","lat":-37.73056729,"lon":144.81595005,"code":"10813"},{"id":"10814","name":"Fox St/Sunshine Ave","lat":-37.73331028,"lon":144.81808207,"code":"10814"},{"id":"10815","name":"Norman St/Sunshine Ave","lat":-37.73525121,"lon":144.81972715,"code":"10815"},{"id":"10816","name":"William St/Sunshine Ave","lat":-37.7383362,"lon":144.82232601,"code":"10816"},{"id":"10817","name":"Harcourt Ave/Sunshine Ave","lat":-37.7406742,"lon":144.82449304,"code":"10817"},{"id":"10818","name":"Ashton Ave/Sunshine Ave","lat":-37.74310936,"lon":144.82655521,"code":"10818"},{"id":"10819","name":"Sage Ave/Sunshine Ave","lat":-37.74516873,"lon":144.8282767,"code":"10819"},{"id":"1082","name":"High St/Station St","lat":-37.72971303,"lon":145.0051088,"code":"1082"},{"id":"10820","name":"Sage Ave/Main Rd East","lat":-37.74759239,"lon":144.82825124,"code":"10820"},{"id":"10821","name":"Wahgunyah Dr/Main Rd East","lat":-37.74730171,"lon":144.82617153,"code":"10821"},{"id":"10822","name":"Branston Rd/Main Rd East","lat":-37.74710232,"lon":144.82415725,"code":"10822"},{"id":"10823","name":"Cowper Ave/Main Rd East","lat":-37.74669424,"lon":144.82109366,"code":"10823"},{"id":"10824","name":"Errington Rd/Main Rd East","lat":-37.74607625,"lon":144.81546011,"code":"10824"},{"id":"10825","name":"Leonard Ave/Main Rd East","lat":-37.74560444,"lon":144.8118878,"code":"10825"},{"id":"10826","name":"Errington Reserve/Main Rd East","lat":-37.74453954,"lon":144.80309003,"code":"10826"},{"id":"10827","name":"Edward St/Settlement Rd","lat":-37.69742049,"lon":145.05455128,"code":"10827"},{"id":"10828","name":"Outlook Rise/Settlement Rd","lat":-37.69704921,"lon":145.05116982,"code":"10828"},{"id":"10829","name":"Latrobe Ave/Settlement Rd","lat":-37.69624562,"lon":145.04672229,"code":"10829"},{"id":"10830","name":"Greenhills Rd/Settlement Rd","lat":-37.6954474,"lon":145.04423678,"code":"10830"},{"id":"10831","name":"Norris Bank Primary School/Settlement Rd","lat":-37.69470295,"lon":145.04119418,"code":"10831"},{"id":"10832","name":"Apex Ct/Settlement Rd","lat":-37.69420238,"lon":145.03602441,"code":"10832"},{"id":"10833","name":"Brand Dr/Settlement Rd","lat":-37.69386441,"lon":145.0330506,"code":"10833"},{"id":"10834","name":"Hanrahan St/Wood St","lat":-37.6932312,"lon":145.02697717,"code":"10834"},{"id":"10836","name":"Cheddar Rd/Keon Pde","lat":-37.69614289,"lon":145.02164887,"code":"10836"},{"id":"10837","name":"Finton Gr/Keon Pde","lat":-37.69557822,"lon":145.01646951,"code":"10837"},{"id":"10838","name":"Keon Park Station/Keon Pde","lat":-37.69513111,"lon":145.01293159,"code":"10838"},{"id":"10839","name":"High St/Mahoneys Rd","lat":-37.69487708,"lon":145.01015976,"code":"10839"},{"id":"1084","name":"Moorhead Dr/Redleap Ave","lat":-37.66356163,"lon":145.06492436,"code":"1084"},{"id":"10840","name":"William Ruthven Secondary College/Mahoneys Rd","lat":-37.69409124,"lon":145.00259353,"code":"10840"},{"id":"10841","name":"Long St/Mahoneys Rd","lat":-37.69370081,"lon":144.99870267,"code":"10841"},{"id":"10842","name":"Callander St/Mahoneys Rd","lat":-37.69331257,"lon":144.99494788,"code":"10842"},{"id":"10843","name":"Hughes Pde/Mahoneys Rd","lat":-37.69284358,"lon":144.9901633,"code":"10843"},{"id":"10844","name":"Lawson Cres/Mahoneys Rd","lat":-37.69239938,"lon":144.98578637,"code":"10844"},{"id":"10845","name":"Lockton Ave/Mahoneys Rd","lat":-37.69209424,"lon":144.98269859,"code":"10845"},{"id":"10846","name":"Sheargold Ct/Mahoneys Rd","lat":-37.69162708,"lon":144.9780502,"code":"10846"},{"id":"10847","name":"Phillip St/Mahoneys Rd","lat":-37.69136654,"lon":144.9754716,"code":"10847"},{"id":"10848","name":"Janice Ct/Mahoneys Rd","lat":-37.69022785,"lon":144.96325482,"code":"10848"},{"id":"10849","name":"Campbellfield Plaza/Mahoneys Rd","lat":-37.68986181,"lon":144.959806,"code":"10849"},{"id":"1085","name":"Buckmaster Dr/Redleap Ave","lat":-37.6651314,"lon":145.06557514,"code":"1085"},{"id":"10850","name":"Concord Cct/Oakwood Rd","lat":-37.75081471,"lon":144.76873131,"code":"10850"},{"id":"10851","name":"Woodland Dr/Oakwood Rd","lat":-37.74631517,"lon":144.77001269,"code":"10851"},{"id":"10852","name":"Kardinia Dr/Oakwood Rd","lat":-37.74450981,"lon":144.7703279,"code":"10852"},{"id":"10854","name":"Delamare Dr/Evergreen Ave","lat":-37.74339473,"lon":144.76522061,"code":"10854"},{"id":"10855","name":"Wintersun Dr/Evergreen Ave","lat":-37.74461154,"lon":144.76333421,"code":"10855"},{"id":"10856","name":"Stephen Calleja Reserve/Opie Rd","lat":-37.74404914,"lon":144.76171698,"code":"10856"},{"id":"10857","name":"Main Rd West/Opie Rd","lat":-37.74188665,"lon":144.76315524,"code":"10857"},{"id":"10858","name":"Opie Rd/Main Rd West","lat":-37.74042473,"lon":144.76494682,"code":"10858"},{"id":"10859","name":"Entally Dr/Main Rd West","lat":-37.74061075,"lon":144.76667744,"code":"10859"},{"id":"1086","name":"Mill Park Stables Shopping Centre/Redleap Ave","lat":-37.66765913,"lon":145.06309468,"code":"1086"},{"id":"10861","name":"Copperfield College/Gillespie Rd","lat":-37.73332465,"lon":144.77166203,"code":"10861"},{"id":"10862","name":"Maplewood Rd/Gillespie Rd","lat":-37.7337061,"lon":144.77515675,"code":"10862"},{"id":"10863","name":"Beverley St/Gillespie Rd","lat":-37.73417318,"lon":144.77937515,"code":"10863"},{"id":"10864","name":"Kings Rd/Gillespie Rd","lat":-37.73437072,"lon":144.7817294,"code":"10864"},{"id":"10865","name":"Glenrosa Ct/Gillespie Rd","lat":-37.73470492,"lon":144.78512351,"code":"10865"},{"id":"10866","name":"Atheldene Dr/Gillespie Rd","lat":-37.73503619,"lon":144.7888468,"code":"10866"},{"id":"10867","name":"Andrew Rd/Jamieson St","lat":-37.73610393,"lon":144.78859944,"code":"10867"},{"id":"10868","name":"John St/Jamieson St","lat":-37.73894743,"lon":144.78693749,"code":"10868"},{"id":"10869","name":"Shirley St/James St","lat":-37.73964649,"lon":144.78865287,"code":"10869"},{"id":"10870","name":"James St/Emily St","lat":-37.74039196,"lon":144.79236412,"code":"10870"},{"id":"10871","name":"Elizabeth St/Emily St","lat":-37.74274361,"lon":144.79186301,"code":"10871"},{"id":"10872","name":"Scott Ave/Main Rd West","lat":-37.7437244,"lon":144.79467095,"code":"10872"},{"id":"10873","name":"Tintern Gr/Bernard St","lat":-37.95282291,"lon":145.0592817,"code":"10873"},{"id":"10874","name":"Parnell St/Bernard St","lat":-37.95323386,"lon":145.06234376,"code":"10874"},{"id":"10875","name":"Christensen St/Bernard St","lat":-37.95355319,"lon":145.06477092,"code":"10875"},{"id":"10876","name":"Cheltenham Sec Col/Bernard St","lat":-37.95396699,"lon":145.06801508,"code":"10876"},{"id":"10877","name":"Dissik St/Bernard St","lat":-37.95439047,"lon":145.07130454,"code":"10877"},{"id":"10878","name":"Kingston Centre/Bernard St","lat":-37.95460198,"lon":145.07596533,"code":"10878"},{"id":"10879","name":"Kingston Centre/Kingston Rd","lat":-37.95326552,"lon":145.07800327,"code":"10879"},{"id":"1088","name":"Childs Rd/Betula Ave","lat":-37.66870404,"lon":145.06032387,"code":"1088"},{"id":"10880","name":"Byng Ave/Kingston Rd","lat":-37.95360096,"lon":145.08088533,"code":"10880"},{"id":"10881","name":"Ball Rd/Kingston Rd","lat":-37.95392955,"lon":145.08390418,"code":"10881"},{"id":"10882","name":"Kingston Heath Golf Club/Kingston Rd","lat":-37.95429575,"lon":145.0870245,"code":"10882"},{"id":"10883","name":"Kingston Rd","lat":-37.95471172,"lon":145.09043949,"code":"10883"},{"id":"10884","name":"Pietro Rd/Kingston Rd","lat":-37.95522009,"lon":145.09455777,"code":"10884"},{"id":"10885","name":"Old Dandenong Rd/Kingston Rd","lat":-37.9557934,"lon":145.09935732,"code":"10885"},{"id":"10887","name":"Peace Rd/Kingston Rd","lat":-37.95680718,"lon":145.1074577,"code":"10887"},{"id":"10888","name":"Heatherton Christian College/Kingston Rd","lat":-37.95738587,"lon":145.11206384,"code":"10888"},{"id":"10889","name":"Kingston Rd/Clayton Rd","lat":-37.95674191,"lon":145.11349166,"code":"10889"},{"id":"10890","name":"Ryans Rd/Clayton Rd","lat":-37.95110953,"lon":145.1146145,"code":"10890"},{"id":"10891","name":"Tully Rd/Clayton Rd","lat":-37.94727402,"lon":145.11539536,"code":"10891"},{"id":"10892","name":"Bodley St/Clayton Rd","lat":-37.94465022,"lon":145.11587207,"code":"10892"},{"id":"10893","name":"Wellington Rd/Blackburn Rd","lat":-37.91782718,"lon":145.13997929,"code":"10893"},{"id":"10895","name":"Princes Hwy/Blackburn Rd","lat":-37.92060372,"lon":145.13946567,"code":"10895"},{"id":"109","name":"Yarra Bend Park/Studley Park Rd","lat":-37.80118878,"lon":145.0063219,"code":"109"},{"id":"10900","name":"Centre Rd/Springs Rd","lat":-37.92808914,"lon":145.1098554,"code":"10900"},{"id":"10901","name":"Bond St/Springs Rd","lat":-37.93020701,"lon":145.10930055,"code":"10901"},{"id":"10902","name":"Namatjira Park/Springs Rd","lat":-37.93325252,"lon":145.10871051,"code":"10902"},{"id":"10903","name":"St Andrews PS/Bunney Rd","lat":-37.93461425,"lon":145.1082091,"code":"10903"},{"id":"10906","name":"Wilson St/Argus St","lat":-37.95847942,"lon":145.06074903,"code":"10906"},{"id":"10907","name":"Rosewarne Ave/Argus St","lat":-37.95881079,"lon":145.06335815,"code":"10907"},{"id":"10909","name":"Primrose Ave/Cavanagh St","lat":-37.95678203,"lon":145.06657552,"code":"10909"},{"id":"10914","name":"Bourke Rd/Clarinda Rd","lat":-37.93996467,"lon":145.09799006,"code":"10914"},{"id":"10915","name":"Elliminya Ct/Clarinda Rd","lat":-37.93820406,"lon":145.09834267,"code":"10915"},{"id":"10916","name":"Tatiara Ave/Clarinda Rd","lat":-37.93526634,"lon":145.09890766,"code":"10916"},{"id":"10917","name":"Clarinda Rd/Bunney Rd","lat":-37.93357154,"lon":145.09998672,"code":"10917"},{"id":"10918","name":"Hanover St/Albion St","lat":-37.75990842,"lon":144.95445485,"code":"10918"},{"id":"1092","name":"Alexandra Ave/Punt Rd","lat":-37.83086439,"lon":144.98776441,"code":"1092"},{"id":"10925","name":"Cantala Ave/Lower Plenty Rd","lat":-37.73599366,"lon":145.07716783,"code":"10925"},{"id":"10926","name":"Kambea Cres/Lower Plenty Rd","lat":-37.73383883,"lon":145.08097956,"code":"10926"},{"id":"10927","name":"Graham Rd/Lower Plenty Rd","lat":-37.73290246,"lon":145.08269447,"code":"10927"},{"id":"10928","name":"Heidelberg Golf Club/Main Rd","lat":-37.72903968,"lon":145.11024165,"code":"10928"},{"id":"10929","name":"Old Eltham Rd/Main Rd","lat":-37.7281551,"lon":145.11184131,"code":"10929"},{"id":"1093","name":"Acland St/Barkly St","lat":-37.86925167,"lon":144.98076364,"code":"1093"},{"id":"10930","name":"Prosperity Rd/Main Rd","lat":-37.72577034,"lon":145.11599785,"code":"10930"},{"id":"10931","name":"Cheverton Rd/Main Rd","lat":-37.72503357,"lon":145.11952245,"code":"10931"},{"id":"10932","name":"Beleura Gr/Main Rd","lat":-37.72563284,"lon":145.1231948,"code":"10932"},{"id":"10934","name":"Main Rd/Bridge St","lat":-37.71885066,"lon":145.14450201,"code":"10934"},{"id":"10935","name":"Susan St/Bridge St","lat":-37.71835193,"lon":145.14030542,"code":"10935"},{"id":"10937","name":"Adam Cres/Sherbourne Rd","lat":-37.71742993,"lon":145.13727668,"code":"10937"},{"id":"10938","name":"Rattray Rd/Sherbourne Rd","lat":-37.71497833,"lon":145.13497841,"code":"10938"},{"id":"10939","name":"Karingal Dr/Sherbourne Rd","lat":-37.71275103,"lon":145.13205073,"code":"10939"},{"id":"1094","name":"Park Orchards Tennis Club/Park Rd","lat":-37.77778963,"lon":145.21447021,"code":"1094"},{"id":"10940","name":"Calrossie Ave/Sherbourne Rd","lat":-37.71128145,"lon":145.12973942,"code":"10940"},{"id":"10941","name":"Baldwin Ave/Sherbourne Rd","lat":-37.7099302,"lon":145.12693745,"code":"10941"},{"id":"10942","name":"Hughes St/Sherbourne Rd","lat":-37.70967482,"lon":145.12278072,"code":"10942"},{"id":"10943","name":"Sherbourne Rd/Mountain View Rd","lat":-37.70915757,"lon":145.11973099,"code":"10943"},{"id":"10944","name":"Community Hall/Mountain View Rd","lat":-37.70791772,"lon":145.11827633,"code":"10944"},{"id":"10945","name":"River St/Mountain View Rd","lat":-37.70620489,"lon":145.11655011,"code":"10945"},{"id":"10946","name":"Harold St/Mountain View Rd","lat":-37.7031841,"lon":145.11587796,"code":"10946"},{"id":"10947","name":"St Helena Rd/Mountain View Rd","lat":-37.7004838,"lon":145.11495954,"code":"10947"},{"id":"10948","name":"Henry St/Ester St","lat":-37.70552573,"lon":145.10006312,"code":"10948"},{"id":"10949","name":"Vermont Pde/McDowell St","lat":-37.70653256,"lon":145.09655504,"code":"10949"},{"id":"1095","name":"Brighton Rd/Glen Huntly Rd","lat":-37.88365098,"lon":144.99597027,"code":"1095"},{"id":"10950","name":"Medbury Ave/Delta Rd","lat":-37.70933694,"lon":145.0960976,"code":"10950"},{"id":"10951","name":"Sainsbury Ave/Delta Rd","lat":-37.71098531,"lon":145.09548822,"code":"10951"},{"id":"10952","name":"Nepean St/Delta Rd","lat":-37.71253792,"lon":145.0945296,"code":"10952"},{"id":"10953","name":"Delta Rd/Elder St","lat":-37.71443084,"lon":145.09288154,"code":"10953"},{"id":"10954","name":"Elder Street Reserve/63 Elder St","lat":-37.71411542,"lon":145.09009891,"code":"10954"},{"id":"10955","name":"Yerrawa Dr/Elder St","lat":-37.7130596,"lon":145.08778912,"code":"10955"},{"id":"10956","name":"Papua St/Elder St","lat":-37.71186146,"lon":145.08615235,"code":"10956"},{"id":"10959","name":"Watsonia Rd/Greensborough Hwy","lat":-37.71500338,"lon":145.08262278,"code":"10959"},{"id":"1096","name":"Tennyson St/Glen Huntly Rd","lat":-37.8831262,"lon":144.99161837,"code":"1096"},{"id":"10960","name":"Torbay St/Greensborough Hwy","lat":-37.71831891,"lon":145.08145953,"code":"10960"},{"id":"10961","name":"Yallambie Rd/Greensborough Hwy","lat":-37.72034115,"lon":145.08112372,"code":"10961"},{"id":"10962","name":"Simpson Army Barracks/Greensborough Hwy","lat":-37.721501,"lon":145.08095765,"code":"10962"},{"id":"10963","name":"Strathallan Rd/Greensborough Hwy","lat":-37.72463749,"lon":145.08042286,"code":"10963"},{"id":"10964","name":"O'Keefe St/Bell St","lat":-37.74624716,"lon":145.01454999,"code":"10964"},{"id":"10965","name":"Liberty Pde/Bell St","lat":-37.74917392,"lon":145.03701209,"code":"10965"},{"id":"10966","name":"The Mall SC/Bell St","lat":-37.74991418,"lon":145.04196372,"code":"10966"},{"id":"10967","name":"Melbourne Polytechnic/Bell St","lat":-37.75076246,"lon":145.04528958,"code":"10967"},{"id":"10968","name":"Gotha St/Bell St","lat":-37.7517801,"lon":145.04796411,"code":"10968"},{"id":"10969","name":"Edwin St/Bell St","lat":-37.75277834,"lon":145.05055977,"code":"10969"},{"id":"1097","name":"Daley St/Glen Huntly Rd","lat":-37.88298737,"lon":144.9903487,"code":"1097"},{"id":"10970","name":"Myrtle St/Bell St","lat":-37.75386229,"lon":145.05343701,"code":"10970"},{"id":"10971","name":"Upper Heidelberg Rd/Bell St","lat":-37.75475908,"lon":145.05589927,"code":"10971"},{"id":"10972","name":"Warringal SC/Cape St","lat":-37.75579159,"lon":145.06716617,"code":"10972"},{"id":"10973","name":"Heidelberg Primary School/Darebin St","lat":-37.75464362,"lon":145.06970452,"code":"10973"},{"id":"10974","name":"Brown St/Rosanna Rd","lat":-37.75212404,"lon":145.07048506,"code":"10974"},{"id":"10975","name":"Reid St/Rosanna Rd","lat":-37.7500127,"lon":145.07088039,"code":"10975"},{"id":"10976","name":"St James Rd/Rosanna Rd","lat":-37.74857548,"lon":145.07116741,"code":"10976"},{"id":"10977","name":"Station Rd/Rosanna Rd","lat":-37.74599626,"lon":145.0716089,"code":"10977"},{"id":"10978","name":"Millicent St/Lower Plenty Rd","lat":-37.74041555,"lon":145.06926845,"code":"10978"},{"id":"10979","name":"Arden Cres/Lower Plenty Rd","lat":-37.7393551,"lon":145.07110036,"code":"10979"},{"id":"1098","name":"Elwood Canal/Glen Huntly Rd","lat":-37.88267643,"lon":144.98744642,"code":"1098"},{"id":"10980","name":"Milford Gr/Lower Plenty Rd","lat":-37.73798879,"lon":145.0735189,"code":"10980"},{"id":"10981","name":"Cantala Ave/Lower Plenty Rd","lat":-37.73612119,"lon":145.07669928,"code":"10981"},{"id":"10982","name":"Kambea Cres/Lower Plenty Rd","lat":-37.73400075,"lon":145.08040801,"code":"10982"},{"id":"10983","name":"Graham Rd/Lower Plenty Rd","lat":-37.73271089,"lon":145.0825519,"code":"10983"},{"id":"10985","name":"Old Eltham Rd/Main Rd","lat":-37.72820744,"lon":145.11117053,"code":"10985"},{"id":"10986","name":"Para Rd/Main Rd","lat":-37.72654953,"lon":145.11400384,"code":"10986"},{"id":"10987","name":"Kett St/Main Rd","lat":-37.72486422,"lon":145.1196402,"code":"10987"},{"id":"10988","name":"Looker Rd/Main Rd","lat":-37.72532851,"lon":145.12275999,"code":"10988"},{"id":"10989","name":"Library Pl/Main Rd","lat":-37.71573164,"lon":145.1473139,"code":"10989"},{"id":"1099","name":"Elwood College/Glen Huntly Rd","lat":-37.88231824,"lon":144.98442039,"code":"1099"},{"id":"10990","name":"Alistair Knox Park/Main Rd","lat":-37.71838972,"lon":145.14613586,"code":"10990"},{"id":"10991","name":"Main Rd/Bridge St","lat":-37.7187703,"lon":145.14454939,"code":"10991"},{"id":"10992","name":"Susan St/Bridge St","lat":-37.71834626,"lon":145.14108837,"code":"10992"},{"id":"10994","name":"Adam Cres/Sherbourne Rd","lat":-37.717351,"lon":145.1374148,"code":"10994"},{"id":"10995","name":"Stephen St/Sherbourne Rd","lat":-37.71488103,"lon":145.1350943,"code":"10995"},{"id":"10996","name":"Karingal Dr/Sherbourne Rd","lat":-37.71290685,"lon":145.13278419,"code":"10996"},{"id":"10997","name":"Elmo Rd/Sherbourne Rd","lat":-37.71130361,"lon":145.12999978,"code":"10997"},{"id":"10998","name":"Hyacinth St/Sherbourne Rd","lat":-37.70980372,"lon":145.12691795,"code":"10998"},{"id":"10999","name":"Hughes St/Sherbourne Rd","lat":-37.70958019,"lon":145.12193233,"code":"10999"},{"id":"11","name":"Newton Gr/Gallaghers Rd","lat":-37.87744457,"lon":145.17856045,"code":"11"},{"id":"110","name":"Clifton Gr/St Elmo Rd","lat":-37.76384196,"lon":145.0460237,"code":"110"},{"id":"1100","name":"Broadway/Glen Huntly Rd","lat":-37.88211832,"lon":144.98222007,"code":"1100"},{"id":"11000","name":"Sherbourne Rd/Mountain View Rd","lat":-37.70891326,"lon":145.1196691,"code":"11000"},{"id":"11001","name":"Community Hall/Mountain View Rd","lat":-37.70768527,"lon":145.11782847,"code":"11001"},{"id":"11002","name":"River St/Mountain View Rd","lat":-37.70649624,"lon":145.11673557,"code":"11002"},{"id":"11003","name":"Harold St/Mountain View Rd","lat":-37.70302376,"lon":145.11599544,"code":"11003"},{"id":"11004","name":"St Helena Rd/Mountain View Rd","lat":-37.7003595,"lon":145.11507612,"code":"11004"},{"id":"11005","name":"Henry St/Ester St","lat":-37.70535548,"lon":145.10012418,"code":"11005"},{"id":"11006","name":"Vermont Pde/McDowell St","lat":-37.70643255,"lon":145.09650088,"code":"11006"},{"id":"11007","name":"Medbury Ave/Delta Rd","lat":-37.70931746,"lon":145.09600735,"code":"11007"},{"id":"11008","name":"Sainsbury Ave/Delta Rd","lat":-37.71104617,"lon":145.09535054,"code":"11008"},{"id":"11009","name":"Nepean St/Delta Rd","lat":-37.71265173,"lon":145.09432249,"code":"11009"},{"id":"1101","name":"Addison St/Glen Huntly Rd","lat":-37.88190367,"lon":144.98021346,"code":"1101"},{"id":"11010","name":"Delta Rd/Elder St","lat":-37.71431116,"lon":145.09272579,"code":"11010"},{"id":"11011","name":"Elder Street Reserve/63 Elder St","lat":-37.71404353,"lon":145.0901121,"code":"11011"},{"id":"11012","name":"Yerrawa Dr/Elder St","lat":-37.71302467,"lon":145.08785808,"code":"11012"},{"id":"11013","name":"Papua St/Elder St","lat":-37.71179988,"lon":145.08624469,"code":"11013"},{"id":"11015","name":"Richards Ave/Greensborough Hwy","lat":-37.71479357,"lon":145.08191349,"code":"11015"},{"id":"11016","name":"Torbay St/Greensborough Hwy","lat":-37.7180288,"lon":145.08135356,"code":"11016"},{"id":"11017","name":"Simpson Army Barracks/Greensborough Hwy","lat":-37.72162361,"lon":145.08073892,"code":"11017"},{"id":"11018","name":"Strathallan Rd/Greensborough Hwy","lat":-37.72376332,"lon":145.08042273,"code":"11018"},{"id":"11019","name":"Oban Way/Greensborough Hwy","lat":-37.72660254,"lon":145.07989558,"code":"11019"},{"id":"1102","name":"Glen Huntly Rd/Barkly St","lat":-37.88160417,"lon":144.97851616,"code":"1102"},{"id":"11020","name":"Erskine Rd/Greensborough Hwy","lat":-37.72946989,"lon":145.07943573,"code":"11020"},{"id":"11026","name":"Crampton Cres/Finlayson St","lat":-37.73462525,"lon":145.07118908,"code":"11026"},{"id":"11027","name":"Pyalong Ave/Finlayson St","lat":-37.73726306,"lon":145.06937305,"code":"11027"},{"id":"11028","name":"Cremin Ct/Finlayson St","lat":-37.73983938,"lon":145.06820533,"code":"11028"},{"id":"1103","name":"Elwood Canal/354 Barkly St","lat":-37.87892756,"lon":144.97903275,"code":"1103"},{"id":"11032","name":"Frankston-Flinders Rd/Golf Links Rd","lat":-38.16443073,"lon":145.13763231,"code":"11032"},{"id":"11033","name":"Brooklyn Ave/Golf Links Rd","lat":-38.16737365,"lon":145.14136982,"code":"11033"},{"id":"11034","name":"Mount Erin College/Golf Links Rd","lat":-38.1734665,"lon":145.14885193,"code":"11034"},{"id":"11035","name":"Heatherhill Rd/Robinsons Rd","lat":-38.17583735,"lon":145.15405461,"code":"11035"},{"id":"11036","name":"Barretts Rd/Robinsons Rd","lat":-38.1792231,"lon":145.17869691,"code":"11036"},{"id":"11037","name":"Warrandyte Rd/Robinsons Rd","lat":-38.1801356,"lon":145.18641456,"code":"11037"},{"id":"11038","name":"Gardeners Rd/Robinsons Rd","lat":-38.18084887,"lon":145.19234493,"code":"11038"},{"id":"11039","name":"Nirvana Cl/Robinsons Rd","lat":-38.18133667,"lon":145.1965228,"code":"11039"},{"id":"1104","name":"Meredith St/Barkly St","lat":-37.87685269,"lon":144.97943054,"code":"1104"},{"id":"11040","name":"Donald Rd/Robinsons Rd","lat":-38.18219529,"lon":145.2037399,"code":"11040"},{"id":"11041","name":"West Rd/Robinsons Rd","lat":-38.18375315,"lon":145.20838264,"code":"11041"},{"id":"11042","name":"Western Port Hwy/Robinsons Rd","lat":-38.1851254,"lon":145.21980059,"code":"11042"},{"id":"11043","name":"Middle Rd/Robinsons Rd","lat":-38.18617577,"lon":145.22906885,"code":"11043"},{"id":"11044","name":"Hansen Park/Durham Rd","lat":-37.80119573,"lon":145.3224662,"code":"11044"},{"id":"11045","name":"North Rd/Durham Rd","lat":-37.80162547,"lon":145.31910583,"code":"11045"},{"id":"11046","name":"Beatrice St/Durham Rd","lat":-37.80179845,"lon":145.3179661,"code":"11046"},{"id":"11049","name":"Lomond Ave/Hawthory Rd","lat":-37.79860159,"lon":145.31309803,"code":"11049"},{"id":"1105","name":"Dickens St/Barkly St","lat":-37.87381694,"lon":144.98002508,"code":"1105"},{"id":"11050","name":"Kilsyth Centenary Swimming Centre/Hawthory Rd","lat":-37.79556311,"lon":145.31363279,"code":"11050"},{"id":"11051","name":"Cambridge Rd/Hawthory Rd","lat":-37.79245353,"lon":145.31423725,"code":"11051"},{"id":"11052","name":"Yarra Hills Sec Col/Cambridge Rd","lat":-37.79142224,"lon":145.31396542,"code":"11052"},{"id":"11053","name":"Mooroolbark Bowls Club/Hull Rd","lat":-37.79039932,"lon":145.3079925,"code":"11053"},{"id":"11054","name":"Mcilraith Ct/Hull Rd","lat":-37.79117716,"lon":145.30630536,"code":"11054"},{"id":"11055","name":"Kurrajong Ave/Hull Rd","lat":-37.79370562,"lon":145.30164809,"code":"11055"},{"id":"11056","name":"Kincumber Dr/Hull Rd","lat":-37.79450284,"lon":145.29818867,"code":"11056"},{"id":"11058","name":"Glamis Ct/Hull Rd","lat":-37.79587223,"lon":145.29379608,"code":"11058"},{"id":"11059","name":"Lacey St/Hewish Rd","lat":-37.79696623,"lon":145.28906897,"code":"11059"},{"id":"1106","name":"Blessington St/Barkly St","lat":-37.87098778,"lon":144.98057983,"code":"1106"},{"id":"11060","name":"Sturt St/Lacey St","lat":-37.79574227,"lon":145.28732549,"code":"11060"},{"id":"11061","name":"Main St/Lacey St","lat":-37.79505657,"lon":145.2823215,"code":"11061"},{"id":"11062","name":"Karingal Dr/Lucerne Cres","lat":-38.1499158,"lon":145.16642816,"code":"11062"},{"id":"11063","name":"Yarla Ct/Lucerne Cres","lat":-38.14956631,"lon":145.16828561,"code":"11063"},{"id":"11064","name":"Oleosa Ct/Lucerne Cres","lat":-38.14823858,"lon":145.16982514,"code":"11064"},{"id":"11065","name":"Pembroke Ave/Lucerne Cres","lat":-38.14638653,"lon":145.16894712,"code":"11065"},{"id":"11066","name":"Escabon Gr/Havana Cres","lat":-38.14423271,"lon":145.16894391,"code":"11066"},{"id":"11067","name":"Havana Cres/Inglenook Cres","lat":-38.14217336,"lon":145.16864167,"code":"11067"},{"id":"11068","name":"Dalpura Cct/Skye Rd","lat":-38.14025553,"lon":145.16874668,"code":"11068"},{"id":"11069","name":"Warrawee Cct/Dalpura Cct","lat":-38.1378521,"lon":145.16314747,"code":"11069"},{"id":"1107","name":"Acland St/Barkly St","lat":-37.86938912,"lon":144.98089631,"code":"1107"},{"id":"11070","name":"Palkana St/Dalpura Cct","lat":-38.13653103,"lon":145.16510883,"code":"11070"},{"id":"11071","name":"Illira Ave/Dalpura Cct","lat":-38.13646141,"lon":145.16930932,"code":"11071"},{"id":"11072","name":"Elenya Ct/Dalpura Cct","lat":-38.13798176,"lon":145.17029822,"code":"11072"},{"id":"11073","name":"Dalpura Cct/Skye Rd","lat":-38.14016634,"lon":145.16880596,"code":"11073"},{"id":"11074","name":"Havana Cres/Inglenook Cres","lat":-38.14242363,"lon":145.1685099,"code":"11074"},{"id":"11075","name":"Escabon Gr/Havana Cres","lat":-38.14428765,"lon":145.1689996,"code":"11075"},{"id":"11076","name":"Pembroke Ave/Lucerne Cres","lat":-38.14620968,"lon":145.16858638,"code":"11076"},{"id":"11077","name":"Oleosa Ct/Lucerne Cres","lat":-38.14830252,"lon":145.16988059,"code":"11077"},{"id":"11078","name":"Yarla Ct/Lucerne Cres","lat":-38.14963079,"lon":145.16837529,"code":"11078"},{"id":"11079","name":"Karingal Dr/Lucerne Cres","lat":-38.14997601,"lon":145.16624406,"code":"11079"},{"id":"1108","name":"Carlisle St/Barkly St","lat":-37.86695472,"lon":144.98134926,"code":"1108"},{"id":"11080","name":"Chisholm Institute of TAFE/Beach St","lat":-38.14190665,"lon":145.12886004,"code":"11080"},{"id":"11081","name":"Regina St/Cambridge Rd","lat":-37.80049139,"lon":145.32997837,"code":"11081"},{"id":"11082","name":"Balmoral St/Durham Rd","lat":-37.80066539,"lon":145.32699867,"code":"11082"},{"id":"11083","name":"Elizabeth Bridge Reserve/Durham Rd","lat":-37.80109368,"lon":145.32416085,"code":"11083"},{"id":"11084","name":"Hansen Park/Durham Rd","lat":-37.80129305,"lon":145.32233906,"code":"11084"},{"id":"11085","name":"Charles St/Durham Rd","lat":-37.80192166,"lon":145.31775885,"code":"11085"},{"id":"11086","name":"Liverpool Rd/Mt Dandenong Rd","lat":-37.8026958,"lon":145.31391355,"code":"11086"},{"id":"11088","name":"Amelia Ct/Hawthory Rd","lat":-37.79981312,"lon":145.3127411,"code":"11088"},{"id":"11089","name":"Lomond Ave/Hawthory Rd","lat":-37.79748492,"lon":145.31315751,"code":"11089"},{"id":"1109","name":"Inkerman St/Barkly St","lat":-37.8637296,"lon":144.98193743,"code":"1109"},{"id":"11090","name":"Kilsyth Centenary Swimming Centre/Hawthory Rd","lat":-37.79530054,"lon":145.3135479,"code":"11090"},{"id":"11091","name":"Cambridge Rd/Hawthory Rd","lat":-37.79258688,"lon":145.3141093,"code":"11091"},{"id":"11093","name":"Mooroolbark Bowls Club/Hull Rd","lat":-37.79031265,"lon":145.30823297,"code":"11093"},{"id":"11094","name":"Nuraylia Ave/Hull Rd","lat":-37.79164518,"lon":145.30563599,"code":"11094"},{"id":"11095","name":"Kurrajong Ave/Hull Rd","lat":-37.79415871,"lon":145.30119479,"code":"11095"},{"id":"11096","name":"Silverley Rd/Hull Rd","lat":-37.7945659,"lon":145.29818722,"code":"11096"},{"id":"11097","name":"Henty Ct/Hull Rd","lat":-37.79591826,"lon":145.29386317,"code":"11097"},{"id":"11098","name":"Sturt St/Lacey St","lat":-37.79580418,"lon":145.28724456,"code":"11098"},{"id":"11099","name":"Main St/Lacey St","lat":-37.7950998,"lon":145.28219558,"code":"11099"},{"id":"111","name":"Ivanhoe Civic Centre/Upper Heidelberg Rd","lat":-37.76623863,"lon":145.04544977,"code":"111"},{"id":"1110","name":"Waterloo Cres/Barkly St","lat":-37.86196861,"lon":144.9822469,"code":"1110"},{"id":"11100","name":"Karingal Hub SC/Karingal Dr","lat":-38.15227468,"lon":145.16513658,"code":"11100"},